Name,Lon,Lat,Source,M2_amp,M2_phs,S2_amp,S2_phs,N2_amp,N2_phs,K2_amp,K2_phs,K1_amp,K1_phs,O1_amp,O1_phs,P1_amp,P1_phs,Q1_amp,Q1_phs
Aden,44.9694425,12.7903297,GESLA,0.485,135.922,0.214,156.266,0.135,130.76,0.06,150.862,0.399,349.45,0.203,352.397,0.122,347.433,0.043,351.574
Akyab (sittwe),92.9042227,20.1400404,GESLA,0.765,92.232,0.34,121.892,0.15,86.174,0.095,119.097,0.133,250.296,0.054,242.533,0.039,248.983,0.005,249.71
Balikpapan,116.8036907,-1.2715053,GESLA,0.604,284.186,0.461,334.715,0.079,266.175,0.14,331.549,0.236,162.743,0.17,140.149,0.072,157.861,0.039,136.435
Beihai,109.0796737,21.4861353,GESLA,0.456,306.821,0.11,357.028,0.09,276.775,0.079,16.009,0.897,336.08,0.981,282.124,0.279,330.621,0.199,255.1
Bintulu,113.0531387,3.2574902,GESLA,0.189,181.525,0.06,165.324,0.057,170.243,0.009,183.684,0.419,199.173,0.349,158.952,0.135,196.112,0.063,140.205
Bitung,125.1995871,1.4375868,GESLA,0.347,274.85,0.23,312.086,0.049,261.414,0.069,308.037,0.207,132.641,0.126,111.189,0.066,129.787,0.025,114.765
Booby island,141.9167,-10.6,GESLA,0.718,202.369,0.14,323.029,0.169,161.685,0.048,294.798,0.696,44.482,0.429,352.334,0.182,36.565,0.08,328.665
Brisbane,153.1615931,-27.3770661,GESLA,0.707,345.791,0.192,2.672,0.138,341.591,0.057,353.783,0.211,20.962,0.117,352.38,0.06,19.306,0.024,328.773
Broome,122.2192964,-18.0008979,GESLA,2.387,65.898,1.481,125.834,0.4,40.243,0.415,123.718,0.256,171.868,0.159,160.851,0.072,173.515,0.035,153.718
Carnarvon,113.6509704,-24.9003242,GESLA,0.318,74.823,0.14,134.429,0.061,53.899,0.039,127.548,0.221,173.034,0.144,164.747,0.069,168.853,0.033,157.666
Casey,110.4900412,-66.2769469,GESLA,0.289,142.533,0.165,198.791,0.071,123.087,0.044,196.66,0.261,242.574,0.261,235.017,0.085,244.369,0.061,226.222
Cebu,123.9135672,10.2960309,GESLA,0.407,83.6,0.226,129.061,0.063,64.183,0.071,128.444,0.309,204.895,0.288,168.596,0.103,205.545,0.057,152.297
Cendering,103.1888361,5.2587514,GESLA,0.3,6.973,0.12,42.85,0.064,348.887,0.033,46.266,0.491,242.359,0.307,204.891,0.149,243.075,0.056,189.802
Chabahar,60.6029566,25.2987563,GESLA,0.665,155.772,0.257,185.014,0.164,138.526,0.069,179.996,0.397,338.731,0.206,339.956,0.122,336.182,0.043,340.705
Charchanga,91.05,22.2188,GESLA,0.963,234.175,0.374,265.64,0.182,212.925,0.099,264.843,0.127,303.357,0.078,284.298,0.041,309.778,0.008,270.695
Chittagong,91.833333,22.323,GESLA,1.732,196.353,0.637,228.686,0.327,181.286,0.174,228.654,0.189,277.466,0.083,264.036,0.057,283.21,0.007,286.979
Cilicap-b,108.9914121,-7.737582,GESLA,0.473,25.897,0.24,85.404,0.089,357.119,0.068,83.01,0.188,166.557,0.117,156.233,0.058,165.1,0.024,144.381
Colombo,79.8341213,6.9643128,GESLA,0.18,245.565,0.125,288.357,0.022,234.117,0.036,285.084,0.071,309.84,0.03,340.349,0.022,314.087,0.009,3.212
Crozet-b,51.8713411,-46.4268488,GESLA,0.138,157.498,0.038,193.752,0.032,140.257,0.01,185.523,0.03,133.657,0.027,297.925,0.006,113.44,0.008,287.442
Dalian-a,121.6697154,38.9358163,GESLA,0.972,55.735,0.304,101.256,0.182,30.495,0.084,98.26,0.256,241.135,0.182,209.971,0.074,235.077,0.035,189.549
Dar es salaam,39.3008849,-6.8209588,GESLA,1.064,26.165,0.53,66.074,0.207,4.629,0.138,62.395,0.175,357.312,0.108,1.966,0.051,356.414,0.023,0.484
Davao-b,125.6290514,7.0761878,GESLA,0.564,286.32,0.287,320.585,0.099,272.297,0.084,319.297,0.129,98.788,0.087,86.922,0.045,91.007,0.016,94.353
Davis,77.9667,-68.45,GESLA,0.202,207.31,0.177,307.221,0.059,171.088,0.05,309.027,0.275,276.614,0.287,269.388,0.09,275.663,0.067,260.67
Diego garcia-d,72.4100128,-7.2925302,GESLA,0.492,263.632,0.285,293.564,0.088,260.726,0.08,288.683,0.037,71.869,0.04,67.219,0.013,58.669,0.009,53.33
Djibouti,43.1357085,11.6010484,GESLA,0.485,135.67,0.219,156.152,0.135,131.155,0.06,150.962,0.393,350.523,0.198,353.677,0.121,349.215,0.041,353.373
Dongfang,108.6185454,19.1060422,GESLA,0.181,189.41,0.055,238.271,0.035,164.754,0.027,235.4,0.532,310.739,0.63,259.329,0.169,304.442,0.133,231.752
Durban,31.0363958,-29.8801713,GESLA,0.565,44.156,0.313,75.832,0.099,37.656,0.089,72.782,0.053,145.412,0.016,298.074,0.015,141.563,0.009,272.616
Dzaoudi,45.2521081,-12.782532,GESLA,1.046,27.236,0.536,66.749,0.193,5.793,0.147,63.437,0.139,3.86,0.088,6.44,0.042,2.764,0.02,351.558
East london,27.9181591,-33.027351,GESLA,0.51,46.763,0.272,74.618,0.097,41.955,0.076,71.441,0.057,142.013,0.015,278.056,0.016,139.133,0.01,261.121
Enewetok-a,162.3867,11.43,GESLA,0.341,145.21,0.204,164.292,0.061,147.87,0.055,154.406,0.118,71.625,0.079,45.052,0.037,72.342,0.016,33.967
Fort denison,151.2254063,-33.8546054,GESLA,0.503,307.068,0.124,320.628,0.112,299.03,0.037,309.191,0.148,329.152,0.097,300.3,0.044,325.563,0.023,278.665
Gan,73.1521372,-0.6876387,GESLA,0.3,252.272,0.181,286.166,0.048,248.344,0.051,282.513,0.09,358.969,0.053,14.466,0.026,0.038,0.013,15.856
Haikou,110.2705112,20.0329089,GESLA,0.222,26.284,0.13,81.551,0.026,13.008,0.079,71.679,0.409,335.416,0.513,282.001,0.131,328.018,0.114,253.918
Hanimaadhoo-b,73.17227,6.7681916,GESLA,0.232,196.895,0.113,247.246,0.042,168.037,0.03,244.714,0.182,340.61,0.092,349.288,0.055,337.165,0.022,355.37
Hillarys,115.7328927,-31.8233956,GESLA,0.054,56.092,0.046,57.815,0.015,106.404,0.014,53.035,0.172,182.768,0.121,175.244,0.054,175.418,0.029,169.409
Hiron point,89.4674033,21.8200199,GESLA,0.82,127.834,0.345,160.206,0.163,120.916,0.099,159.656,0.133,267.726,0.051,257.896,0.042,264.423,0.002,279.142
Hon dau-b,106.8083101,20.670615,GESLA,0.065,197.52,0.046,253.818,0.014,169.479,0.019,215.201,0.711,345.978,0.819,290.369,0.228,341.902,0.162,258.36
Hong kong-b,114.2255084,22.2872638,GESLA,0.388,36.538,0.155,56.294,0.084,24.969,0.046,55.069,0.357,179.648,0.29,139.706,0.115,175.28,0.055,122.49
Inhambane,35.3758846,-23.8676328,GESLA,0.894,76.311,0.505,119.099,0.15,63.885,0,0,0.033,156.606,0.038,342.429,0.003,157.563,0.015,292.817
Jakarta,106.8642908,-6.102661,GESLA,0.057,141.114,0.051,76.181,0.021,111.094,0.019,49.978,0.257,34.429,0.136,22.004,0.076,31.965,0.035,11.525
Johor baharu,103.7862283,1.4694008,GESLA,0.876,94.005,0.342,143.952,0.17,73.594,0.099,140.345,0.307,341.751,0.307,298.033,0.096,335.367,0.062,269.041
Jolo,120.9995065,6.0586984,GESLA,0.17,0.487,0.101,34.567,0.028,345.963,0.031,35.539,0.251,194.378,0.246,163.12,0.08,194.555,0.05,148.304
Kaohsiung,120.2554054,22.6182287,GESLA,0.181,350.497,0.069,352.199,0.041,339.309,0.018,354.901,0.174,166.346,0.16,129.563,0.057,161.182,0.032,108.69
Kapingamarangi,154.7767,1.0983,GESLA,0.171,149.335,0.159,167.631,0.032,174.873,0.053,167.796,0.197,69.435,0.123,50.049,0.065,67.895,0.023,40.618
Karachi-b,66.9722321,24.8039287,GESLA,0.802,158.018,0.312,187.15,0.193,141.744,0.086,182.571,0.399,337.703,0.203,339.253,0.119,335.146,0.042,340.615
Kavieng,150.7878331,-2.5842819,GESLA,0.078,154.65,0.122,156.294,0.026,200.944,0.035,149.215,0.222,60.051,0.136,43.172,0.07,58.346,0.025,33.515
Keelung,121.7522526,25.1587781,GESLA,0.228,47.31,0.056,40.424,0.058,20.789,0.014,32.327,0.188,107.06,0.156,82.752,0.062,104.414,0.032,67.407
Keling,102.1529352,2.2116337,GESLA,0.612,356.041,0.298,35.625,0.11,346.891,0.083,30.612,0.092,32.301,0.215,33.776,0.03,7.692,0.028,9.259
Kerguelen,70.1427657,-49.411557,GESLA,0.521,190.234,0.219,230.372,0.114,172.397,0.06,227.434,0.079,151.449,0.019,117.161,0.024,145.559,0.001,132.805
Khepupara,89.8132151,21.8216681,GESLA,0.856,141.704,0.378,179.695,0.163,137.665,0.107,179.244,0.131,279.277,0.055,265.842,0.043,274.643,0.004,255.712
Ko taphao noi,98.4136918,7.8318063,GESLA,0.788,99.712,0.401,135.94,0.151,94.379,0.113,130.933,0.131,224.923,0.049,191.076,0.039,222.695,0.007,136.613
Kuantan,103.4325749,3.9798806,GESLA,0.531,29.224,0.176,68.735,0.115,5.764,0.06,76.387,0.528,252.777,0.361,218.204,0.164,253.414,0.07,202.471
Kukup,103.4386866,1.3322829,GESLA,0.94,91.815,0.429,136.982,0.172,81.1,0.13,132.575,0.259,42.424,0.254,8.269,0.078,33.663,0.038,331.372
Lamu-b,40.9078062,-2.2598218,GESLA,0.982,31.653,0.485,72.975,0.178,12.801,0.132,69.871,0.198,358.572,0.118,4.284,0.056,0.229,0.026,359.74
Langkawi,99.7651073,6.4305486,GESLA,0.806,118.023,0.447,155.854,0.149,113.744,0.124,150.629,0.168,231.958,0.053,184.124,0.051,233.911,0.009,133.054
Legaspi,123.7604499,13.1466359,GESLA,0.527,284.836,0.221,312.993,0.097,272.835,0.063,311.085,0.16,78.881,0.11,70.305,0.052,79.107,0.025,62.139
Lianyungang,119.4393594,34.7565583,GESLA,1.662,306.16,0.498,344.6,0.321,283.08,0.143,340.309,0.296,254.846,0.233,201.401,0.085,245.151,0.041,169.468
Lungsurannaga,117.9245796,2.0667198,GESLA,0.965,302.762,0.589,345.632,0.153,287.249,0.166,342.41,0.194,149.55,0.147,128.5,0.062,151.145,0.027,120.707
Lusi-a,121.6167,32.1333,GESLA,1.708,120.382,0.748,156.249,0.317,106.493,0.216,148.922,0.196,28.388,0.104,332.097,0.045,24.973,0.013,296.11
Macau,113.5514377,22.180689,GESLA,0.464,56.277,0.187,81.499,0.094,43.432,0.055,79.13,0.369,187.734,0.302,146.517,0.117,186.061,0.054,129.816
"Male-b,hulule",73.5167249,4.1784865,GESLA,0.236,226.262,0.138,270.382,0.035,208.344,0.036,267.503,0.116,344.888,0.063,359.645,0.037,341.713,0.016,8.039
Manila-a,120.9660777,14.5806211,GESLA,0.191,63.598,0.067,92.172,0.039,50.458,0.021,88.087,0.304,199.385,0.281,155.442,0.096,196.096,0.05,135.968
Maputo,32.7,-26.1667,GESLA,0.945,63.235,0.553,103.705,0.14,50.29,0.147,101.067,0.035,171.048,0.028,331.368,0.014,185.089,0.008,301.159
Maputo-b,32.5698069,-25.977797,GESLA,0.942,64.463,0.552,104.603,0.151,54.674,0.152,98.559,0.038,169.639,0.025,328.373,0.012,179.385,0.011,287.903
Masirah,58.8702409,20.686971,GESLA,0.604,166.933,0.232,198.342,0.149,150.927,0.063,190.371,0.401,346.189,0.211,348.879,0.123,346.726,0.045,350.57
Mawson,62.8833,-67.6,GESLA,0.032,233.499,0.112,9.254,0.022,176.915,0.033,11.293,0.233,292.149,0.252,284.92,0.077,291.966,0.059,276.396
Meneng,114.38742,-8.1999634,GESLA,0.458,77.972,0.226,111.686,0.088,56.021,0.066,107.863,0.311,176.889,0.195,158.246,0.094,178.688,0.042,153.545
Mina sulman,50.6224881,26.1964943,GESLA,0.628,67.152,0.221,120.794,0.141,35.441,0.075,107.075,0.11,357.527,0.076,284.15,0.032,339.01,0.014,246.712
Miri,113.9693236,4.3823398,GESLA,0.179,101.439,0.087,124.067,0.036,99.705,0.022,114.708,0.368,194.802,0.326,154.729,0.115,191.232,0.062,135.096
Mombasa,39.6531917,-4.0652912,GESLA,1.041,25.465,0.515,64.716,0.191,4.785,0.14,61.821,0.189,354.773,0.112,359.23,0.054,355.316,0.024,353.382
Moulmein,97.6217,16.465,GESLA,1.335,272.408,0.476,306.853,0.237,256.833,0.135,306.649,0.14,297.591,0.078,299.884,0.043,328.345,0.012,317.023
Muscat-a,58.5679397,23.6243584,GESLA,0.64,159.436,0.245,189.659,0.158,141.173,0.064,182.974,0.392,341.169,0.206,342.881,0.121,339.876,0.043,344.073
Nacala-b,40.674362,-14.4581367,GESLA,1.046,28.227,0.588,55.661,0.187,18.464,0,0,0.109,340.999,0.087,7.631,0.002,92.038,0.019,359.265
Padang-b,100.3794096,-1.0004116,GESLA,0.352,335.987,0.148,17.311,0.076,319.61,0.041,14.854,0.125,175.161,0.075,166.091,0.038,175.796,0.015,148.818
Pari,106.620777,-5.8620176,GESLA,0.019,85.945,0.034,41.145,0.009,54.883,0.026,18.025,0.216,18.673,0.123,5.752,0.117,16.496,0.032,1.69
Pemba-c,40.4877299,-12.9691259,GESLA,1.136,30.274,0.588,71.02,0.199,9.014,0.165,68.813,0.126,0.165,0.087,4.804,0.038,359.361,0.018,353.201
Penang,100.3497041,5.4169577,GESLA,0.616,152.772,0.365,186.715,0.117,150.47,0.1,181.798,0.197,236.952,0.051,178.271,0.064,240.017,0.011,132.313
Pohnpei-b,158.1984427,6.9829089,GESLA,0.275,124.581,0.194,146.562,0.049,132.005,0.056,142.681,0.16,62.213,0.098,41.262,0.049,60.545,0.018,29.276
Port louis-c,57.4904402,-20.153318,GESLA,0.149,272.85,0.097,277.349,0.042,279.478,0.028,273.623,0.064,65.773,0.043,38.909,0.02,66.66,0.008,12.511
Port stanvac,138.4667751,-35.1069747,GESLA,0.434,188.078,0.428,246.767,0.026,286.801,0.123,245.085,0.244,264.568,0.167,247.824,0.071,260.445,0.038,235.455
Praslin,55.767451,-4.3464024,GESLA,0.352,13.024,0.156,50.643,0.073,350.01,0.041,47.334,0.187,358.366,0.106,4.834,0.055,357.277,0.025,13.187
Prigi,111.725966,-8.2894066,GESLA,0.582,37.665,0.315,95.514,0.107,9.985,0.087,93.183,0.219,168.2,0.132,157.635,0.067,166.315,0.027,145.612
Pt. la rue,55.5280425,-4.6719994,GESLA,0.398,14.027,0.178,52.667,0.083,350.147,0.048,49.453,0.182,0.19,0.104,5.317,0.055,359.293,0.023,0.591
Puerto princesa,118.7315405,9.7285978,GESLA,0.296,71.444,0.162,103.067,0.047,55.532,0.05,108.701,0.342,200.097,0.302,163.177,0.116,199.423,0.059,148.457
Reunion,55.2874462,-20.9222933,GESLA,0.174,282.653,0.092,295.952,0.045,281.676,0.025,289.874,0.053,82.645,0.033,48.248,0.017,77.766,0.007,11.623
Richard's bay,32.0846518,-28.8063366,GESLA,0.601,46.316,0.341,79.821,0.104,36.949,0.096,78.022,0.048,151.507,0.018,308.725,0.014,146.993,0.01,278.65
Rodrigues,63.4181417,-19.6680045,GESLA,0.4,255.979,0.25,283.003,0.075,257.978,0.072,278.842,0.055,95.486,0.037,73.631,0.017,93.425,0.006,40.646
Rosslyn bay,150.7880903,-23.1589972,GESLA,1.315,340.315,0.493,337.064,0.304,331.136,0.141,331.695,0.302,9.629,0.159,340.297,0.089,6.583,0.031,319.854
Sabang,95.3364947,5.8984492,GESLA,0.49,87.219,0.233,121.193,0.097,81.221,0.067,118.877,0.101,214.999,0.045,183.759,0.031,216.473,0.008,133.748
Saint paul,77.537785,-38.7129976,GESLA,0.398,228.955,0.214,272.615,0.072,211.878,0.061,269.934,0.069,151.168,0.033,173.576,0.02,150.847,0.008,187.259
Salalah,54.0194836,16.9377339,GESLA,0.315,144.844,0.124,168.212,0.084,133.111,0.034,162.138,0.364,344.566,0.187,347.352,0.111,342.448,0.04,348.883
Sandakan,118.0850678,5.8083349,GESLA,0.416,85.099,0.23,118.832,0.065,70.444,0.066,120.97,0.357,204.48,0.326,169.27,0.118,206.417,0.064,154.014
Saumlaki,131.288734,-7.9816575,GESLA,0.619,148.372,0.219,207.574,0.131,123.567,0.062,202.343,0.282,197.091,0.211,187.976,0.087,195.193,0.052,173.683
Shanwei,115.3572956,22.7625056,GESLA,0.276,22.775,0.109,37.03,0.062,15.722,0.032,35.985,0.324,176.841,0.265,137.152,0.102,173.514,0.051,120.22
Shijiusuo,119.5601277,35.335843,GESLA,1.459,289.384,0.439,325.262,0.285,266.639,0.128,320.087,0.284,247.118,0.226,194.804,0.081,237.485,0.04,163.364
Sibolga,98.7773189,1.7335469,GESLA,0.282,338.75,0.134,12.732,0.059,325.432,0.037,8.466,0.103,182.929,0.063,162.897,0.031,184.043,0.013,137.608
Spring bay,147.9287,-42.5467692,GESLA,0.299,309.078,0.03,322.987,0.08,300.429,0.01,292.238,0.137,295.473,0.095,268.968,0.043,291.892,0.023,254.286
Subic bay,120.2693805,14.8246602,GESLA,0.164,53.636,0.059,82.865,0.033,40.183,0.017,82.312,0.284,196.593,0.256,155.017,0.088,191.485,0.048,136.576
Surabaya,112.7036711,-7.192802,GESLA,0.347,115.44,0.212,124.139,0.064,105.141,0.062,123.207,0.467,205.59,0.265,166.306,0.143,206.987,0.047,155.356
"Syowa, antarctica",39.6,-69,GESLA,0.25,81.075,0.201,97.095,0.042,74.567,0.058,95.474,0.222,317.402,0.246,310.609,0.074,316.337,0.058,301.955
Tanjong pagar,103.8519321,1.2635395,GESLA,0.798,91.622,0.323,137.987,0.155,72.527,0.096,136.261,0.307,351.292,0.301,306.561,0.096,343.334,0.06,274.722
Tawau,117.8833,4.2333,GESLA,0.869,295.15,0.525,336.354,0.138,281.262,0.15,333.425,0.207,147.646,0.164,120.628,0.068,145.497,0.032,113.08
Teknaf,92.310128,20.8706692,GESLA,1.088,101.89,0.489,135.019,0.218,97.324,0.132,131.019,0.147,251.72,0.06,242.087,0.044,252.163,0.003,250.53
Tinian,145.6183,14.96,GESLA,0.174,291.66,0.038,306.745,0.041,272.91,0.011,301.882,0.164,62.598,0.104,45.507,0.053,62.053,0.022,35.582
Vung ang,106.3897301,18.1149538,GESLA,0.247,151.131,0.066,215.112,0.047,120.097,0.046,219.737,0.323,353.388,0.405,293.729,0.104,343.26,0.088,263.653
Zanzibar,39.1905043,-6.1567707,GESLA,1.207,25.474,0.61,64.616,0.22,4.871,0.166,61.395,0.183,355.992,0.111,0.774,0.054,354.516,0.025,353.459
Zhapo-a,111.8178505,21.5832202,GESLA,0.649,61.108,0.279,92.498,0.128,49.435,0.09,78.482,0.41,192.486,0.347,152.649,0.131,187.981,0.067,132.861
Abashiri,144.2874743,44.0231708,JMA,0.171,162.723,0.079,206.823,NaN,NaN,NaN,NaN,0.214,53.697,0.221,31.757,NaN,NaN,NaN,NaN
Aburatsu,131.4115441,31.5693712,JMA,0.524,271.247,0.23,295.687,NaN,NaN,NaN,NaN,0.227,59.703,0.177,38.893,NaN,NaN,NaN,NaN
Aburatsubo,139.6133516,35.1392108,JMA,0.36,227.247,0.171,255.127,NaN,NaN,NaN,NaN,0.232,37.513,0.182,18.783,NaN,NaN,NaN,NaN
Akabane,137.1886438,34.6007242,JMA,0.44,253.123,0.205,277.743,NaN,NaN,NaN,NaN,0.22,45.567,0.165,25.677,NaN,NaN,NaN,NaN
Akashi,134.9904999,34.6406616,JMA,0.148,348.993,0.086,330.443,NaN,NaN,NaN,NaN,0.253,81.167,0.193,58.957,NaN,NaN,NaN,NaN
Amagasaki,135.3996138,34.699065,JMA,0.294,304.8,0.166,317.48,NaN,NaN,NaN,NaN,0.26,68.68,0.196,46.52,NaN,NaN,NaN,NaN
Amami,129.5350389,28.3230138,JMA,0.556,283.653,0.233,308.593,NaN,NaN,NaN,NaN,0.22,66.317,0.167,45.157,NaN,NaN,NaN,NaN
Aoki,133.6869057,34.3672515,JMA,1.081,58.833,0.397,92.573,NaN,NaN,NaN,NaN,0.329,102.227,0.242,78.267,NaN,NaN,NaN,NaN
Aomori,140.7640813,40.8351716,JMA,0.181,183.097,0.083,221.247,NaN,NaN,NaN,NaN,0.055,19.403,0.037,8.353,NaN,NaN,NaN,NaN
Asamushi,140.8579712,40.8932811,JMA,0.186,180.787,0.086,218.587,NaN,NaN,NaN,NaN,0.055,19.363,0.037,7.193,NaN,NaN,NaN,NaN
Awayuki,134.5922109,33.7693605,JMA,0.47,262.33,0.212,286.8,NaN,NaN,NaN,NaN,0.21,54.52,0.165,34.62,NaN,NaN,NaN,NaN
Ayukawa,141.5040447,38.2926913,JMA,0.318,191.24,0.148,226.73,NaN,NaN,NaN,NaN,0.241,28.17,0.195,11.29,NaN,NaN,NaN,NaN
Beppu,131.5043023,33.299305,JMA,0.587,338.45,0.245,6.99,NaN,NaN,NaN,NaN,0.256,74.39,0.194,52.61,NaN,NaN,NaN,NaN
Chiba,140.0620805,35.5443748,JMA,0.483,232.66,0.239,261.1,NaN,NaN,NaN,NaN,0.252,39.03,0.198,20.49,NaN,NaN,NaN,NaN
Chibako,140.0983907,35.604571,JMA,0.479,232.99,0.236,260.97,NaN,NaN,NaN,NaN,0.252,39.05,0.197,20.49,NaN,NaN,NaN,NaN
Chofu,131.0045919,34.0152086,JMA,1.079,355.35,0.475,25.04,NaN,NaN,NaN,NaN,0.299,80.28,0.226,58.51,NaN,NaN,NaN,NaN
Choshigyoko,140.8578694,35.7450367,JMA,0.304,206.207,0.145,239.337,NaN,NaN,NaN,NaN,0.232,34.433,0.19,15.203,NaN,NaN,NaN,NaN
Deshimatsu,130.9279525,33.9248984,JMA,0.584,2.563,0.266,32.123,NaN,NaN,NaN,NaN,0.15,113.437,0.135,99.797,NaN,NaN,NaN,NaN
Ei,134.83005,34.4694798,JMA,0.296,65.473,0.061,70.103,NaN,NaN,NaN,NaN,0.276,94.127,0.205,69.437,NaN,NaN,NaN,NaN
Esashi,142.5894055,44.9329381,JMA,0.169,161.023,0.081,205.703,NaN,NaN,NaN,NaN,0.175,31.657,0.168,10.337,NaN,NaN,NaN,NaN
Esashi,140.1179049,41.8679293,JMA,0.056,180.643,0.022,218.473,NaN,NaN,NaN,NaN,0.063,238.327,0.068,207.417,NaN,NaN,NaN,NaN
Fukaura,139.9231191,40.6467114,JMA,0.051,177.523,0.021,212.433,NaN,NaN,NaN,NaN,0.053,212.707,0.053,186.867,NaN,NaN,NaN,NaN
Funakawako,139.8632608,39.8953677,JMA,0.054,175.89,0.021,215.54,NaN,NaN,NaN,NaN,0.054,208.58,0.054,185.72,NaN,NaN,NaN,NaN
Fushikitoyama,137.069714,36.8006873,JMA,0.059,167.147,0.022,192.457,NaN,NaN,NaN,NaN,0.053,208.763,0.052,182.923,NaN,NaN,NaN,NaN
Gobo,135.1671819,33.842417,JMA,0.481,263.557,0.218,287.907,NaN,NaN,NaN,NaN,0.22,53.743,0.172,33.293,NaN,NaN,NaN,NaN
Hachijojima (Kaminato),139.8054073,33.1341596,JMA,0.322,239.33,0.156,266.19,NaN,NaN,NaN,NaN,0.201,41.5,0.154,24.63,NaN,NaN,NaN,NaN
Hachijojima (Yaene),139.7698213,33.0965486,JMA,0.336,245.117,0.157,270.007,NaN,NaN,NaN,NaN,0.221,50.033,0.173,28.563,NaN,NaN,NaN,NaN
Hachinohe,141.5262949,40.5309193,JMA,0.306,181.493,0.141,220.183,NaN,NaN,NaN,NaN,0.223,22.077,0.178,6.197,NaN,NaN,NaN,NaN
Hachinoheko,141.5526608,40.5343197,JMA,0.306,181.44,0.141,220.15,NaN,NaN,NaN,NaN,0.223,21.72,0.178,6.02,NaN,NaN,NaN,NaN
Haedomari,130.87725,33.9434319,JMA,0.355,21.213,0.172,46.653,NaN,NaN,NaN,NaN,0.12,153.987,0.125,133.557,NaN,NaN,NaN,NaN
Hagi,131.4124183,34.4368548,JMA,0.156,53.127,0.078,72.337,NaN,NaN,NaN,NaN,0.097,195.223,0.111,169.803,NaN,NaN,NaN,NaN
Hakodate,140.7245634,41.7804049,JMA,0.218,187.537,0.1,225.287,NaN,NaN,NaN,NaN,0.129,34.983,0.103,20.143,NaN,NaN,NaN,NaN
Hamada,132.0634162,34.8979124,JMA,0.079,88.737,0.039,99.357,NaN,NaN,NaN,NaN,0.072,220.363,0.087,193.723,NaN,NaN,NaN,NaN
Hashihama,132.9697789,34.1093278,JMA,1.103,31.473,0.436,62.713,NaN,NaN,NaN,NaN,0.325,89.657,0.24,67.727,NaN,NaN,NaN,NaN
Hiagari,130.869364,33.9224361,JMA,0.366,13.723,0.178,40.673,NaN,NaN,NaN,NaN,0.114,150.177,0.119,131.367,NaN,NaN,NaN,NaN
Himeji,134.6631908,34.7829277,JMA,0.333,52.247,0.082,56.227,NaN,NaN,NaN,NaN,0.28,90.653,0.209,65.903,NaN,NaN,NaN,NaN
Hiroshima,132.4623647,34.3518203,JMA,1.02,13.047,0.423,43.167,NaN,NaN,NaN,NaN,0.311,84.223,0.228,61.643,NaN,NaN,NaN,NaN
Hitachi,140.6297818,36.4986718,JMA,0.309,201.033,0.146,233.883,NaN,NaN,NaN,NaN,0.224,29.017,0.174,11.677,NaN,NaN,NaN,NaN
Hiwasa,134.55,33.716667,JMA,0.48,263.8,0.222,289.08,NaN,NaN,NaN,NaN,0.193,49.94,0.16,35.53,NaN,NaN,NaN,NaN
Hondoseto,130.2104201,32.4287509,JMA,1.007,346.307,0.439,19.527,NaN,NaN,NaN,NaN,0.265,86.263,0.207,66.033,NaN,NaN,NaN,NaN
Honmoku,139.6892726,35.4434291,JMA,0.445,233.327,0.218,262.567,NaN,NaN,NaN,NaN,0.246,39.203,0.194,20.833,NaN,NaN,NaN,NaN
Hosojima,131.6674932,32.4286833,JMA,0.519,272.717,0.224,296.807,NaN,NaN,NaN,NaN,0.208,57.673,0.161,38.013,NaN,NaN,NaN,NaN
Ikuji,137.4145271,36.8894292,JMA,0.058,167.507,0.021,194.477,NaN,NaN,NaN,NaN,0.055,208.873,0.054,182.493,NaN,NaN,NaN,NaN
Imabari,133.0056649,34.0746031,JMA,0.997,47.35,0.372,81,NaN,NaN,NaN,NaN,0.317,100.95,0.229,78.23,NaN,NaN,NaN,NaN
Imabarishioshima,132.9788484,34.1223337,JMA,1.084,31.083,0.422,61.723,NaN,NaN,NaN,NaN,0.328,92.187,0.246,71.317,NaN,NaN,NaN,NaN
Ishikarishinko,141.3026822,43.2177773,JMA,0.047,198.65,0.023,228.67,NaN,NaN,NaN,NaN,0.052,208.89,0.054,185.88,NaN,NaN,NaN,NaN
Ishinomaki,141.2776533,38.3998655,JMA,0.331,192.057,0.154,227.297,NaN,NaN,NaN,NaN,0.242,28.233,0.195,12.043,NaN,NaN,NaN,NaN
Ito,139.1335449,34.896511,JMA,0.354,228.193,0.168,256.203,NaN,NaN,NaN,NaN,0.238,38.377,0.185,19.307,NaN,NaN,NaN,NaN
Itozaki,133.1022264,34.3895623,JMA,1.058,43.953,0.394,76.923,NaN,NaN,NaN,NaN,0.315,97.037,0.226,73.217,NaN,NaN,NaN,NaN
Iwanai,140.5128046,42.9913066,JMA,0.048,193.997,0.022,227.017,NaN,NaN,NaN,NaN,0.048,207.653,0.049,188.243,NaN,NaN,NaN,NaN
Iyomishima,133.5376832,33.9955378,JMA,1.166,56.06,0.429,90.37,NaN,NaN,NaN,NaN,0.332,102.73,0.245,78.72,NaN,NaN,NaN,NaN
Izuhara,129.2917817,34.1952348,JMA,0.517,354.18,0.245,20.06,NaN,NaN,NaN,NaN,0.084,77.84,0.061,70.89,NaN,NaN,NaN,NaN
Izumiotsu,135.3867821,34.5246404,JMA,0.304,302.82,0.173,315.56,NaN,NaN,NaN,NaN,0.259,67.69,0.192,45.52,NaN,NaN,NaN,NaN
Kagoshima,130.5708513,31.5832051,JMA,0.77,303.417,0.338,329.277,NaN,NaN,NaN,NaN,0.253,70.613,0.197,50.393,NaN,NaN,NaN,NaN
Kamaishi,141.8980423,39.2657283,JMA,0.303,186.673,0.14,223.893,NaN,NaN,NaN,NaN,0.232,26.337,0.189,10.267,NaN,NaN,NaN,NaN
Kanazawa,136.6024033,36.6204904,JMA,0.057,162.87,0.02,185.13,NaN,NaN,NaN,NaN,0.052,207.72,0.053,181.53,NaN,NaN,NaN,NaN
Kanda,130.9900007,33.7927603,JMA,1.056,354.08,0.463,23.86,NaN,NaN,NaN,NaN,0.297,79.09,0.224,57.41,NaN,NaN,NaN,NaN
Kankujima,135.2590085,34.4443491,JMA,0.292,298.79,0.168,313.26,NaN,NaN,NaN,NaN,0.254,68.16,0.192,46.23,NaN,NaN,NaN,NaN
Kannoura,134.3064802,33.5440627,JMA,0.479,261.88,0.213,286.87,NaN,NaN,NaN,NaN,0.211,52.51,0.164,32.71,NaN,NaN,NaN,NaN
Karatsu,129.9659804,33.4595782,JMA,0.563,12.217,0.268,36.497,NaN,NaN,NaN,NaN,0.16,125.563,0.146,107.853,NaN,NaN,NaN,NaN
Kariya,129.8448234,33.4724261,JMA,0.647,8.25,0.304,32.56,NaN,NaN,NaN,NaN,0.182,114.03,0.158,96.43,NaN,NaN,NaN,NaN
Kashima,140.7,35.933333,JMA,0.307,204.17,0.146,237.37,NaN,NaN,NaN,NaN,0.236,32.8,0.189,13.02,NaN,NaN,NaN,NaN
Kashiwazaki,138.5107983,37.3569165,JMA,0.056,169.237,0.021,197.607,NaN,NaN,NaN,NaN,0.053,209.283,0.053,183.273,NaN,NaN,NaN,NaN
Katahara,137.1884346,34.7931662,JMA,0.604,265.913,0.281,292.103,NaN,NaN,NaN,NaN,0.239,52.517,0.181,31.397,NaN,NaN,NaN,NaN
Katsuura,140.25,35.133333,JMA,0.359,219.7,0.166,249.2,NaN,NaN,NaN,NaN,0.224,36.7,0.175,18.47,NaN,NaN,NaN,NaN
Kawasaki,139.7459982,35.5160033,JMA,0.453,233.36,0.224,261.79,NaN,NaN,NaN,NaN,0.249,39.44,0.197,20.46,NaN,NaN,NaN,NaN
Keihinko,139.638397,35.4671476,JMA,0.442,233.773,0.218,262.333,NaN,NaN,NaN,NaN,0.246,39.557,0.194,20.957,NaN,NaN,NaN,NaN
Kiritappu,145.1235442,43.0841244,JMA,0.286,174.967,0.132,216.727,NaN,NaN,NaN,NaN,0.218,17.463,0.173,14.943,NaN,NaN,NaN,NaN
Kisarazu,139.9151543,35.3841105,JMA,0.441,230.867,0.215,259.467,NaN,NaN,NaN,NaN,0.244,37.683,0.19,19.883,NaN,NaN,NaN,NaN
Kishiwada,135.3656585,34.4689844,JMA,0.314,301.057,0.167,316.647,NaN,NaN,NaN,NaN,0.26,68.323,0.198,45.193,NaN,NaN,NaN,NaN
Kobe,135.1890193,34.6785423,JMA,0.28,306.863,0.159,318.333,NaN,NaN,NaN,NaN,0.259,69.287,0.195,46.667,NaN,NaN,NaN,NaN
Kochi,133.5714735,33.5018788,JMA,0.494,266.277,0.219,290.497,NaN,NaN,NaN,NaN,0.218,56.113,0.168,36.213,NaN,NaN,NaN,NaN
Kochishimoda,133,32.933333,JMA,0.495,268.54,0.214,292.69,NaN,NaN,NaN,NaN,0.213,56.82,0.162,36.77,NaN,NaN,NaN,NaN
Kogo,129.8384614,32.7237619,JMA,0.81,329.443,0.363,355.313,NaN,NaN,NaN,NaN,0.256,78.037,0.2,57.777,NaN,NaN,NaN,NaN
Komatsushima,134.592313,34.0117758,JMA,0.416,270.253,0.202,294.263,NaN,NaN,NaN,NaN,0.223,59.767,0.172,38.747,NaN,NaN,NaN,NaN
Kuchinotsu,130.1911916,32.6084145,JMA,0.995,347.69,0.427,20.42,NaN,NaN,NaN,NaN,0.267,85.57,0.208,65.72,NaN,NaN,NaN,NaN
Kure,132.5542915,34.2393467,JMA,1.034,13.75,0.429,43.81,NaN,NaN,NaN,NaN,0.313,84.34,0.23,61.8,NaN,NaN,NaN,NaN
Kurushimakoro,132.9899151,34.1161696,JMA,1.018,38.153,0.385,69.793,NaN,NaN,NaN,NaN,0.325,97.447,0.244,78.047,NaN,NaN,NaN,NaN
Kushimoto,135.7860245,33.4670702,JMA,0.454,263.447,0.202,286.487,NaN,NaN,NaN,NaN,0.218,52.343,0.165,32.113,NaN,NaN,NaN,NaN
Kushiro,144.3688127,42.9753661,JMA,0.29,177.087,0.134,217.207,NaN,NaN,NaN,NaN,0.251,24.023,0.19,357.083,NaN,NaN,NaN,NaN
Kutsugata,141.1293633,45.1935409,JMA,0.037,224.413,0.02,243.953,NaN,NaN,NaN,NaN,0.054,212.127,0.054,188.277,NaN,NaN,NaN,NaN
Maizuru,135.383333,35.483333,JMA,0.061,160.313,0.022,179.823,NaN,NaN,NaN,NaN,0.051,206.927,0.052,179.177,NaN,NaN,NaN,NaN
Makurazaki,130.2918461,31.2593853,JMA,0.698,303.91,0.306,329.5,NaN,NaN,NaN,NaN,0.246,69.56,0.191,49.52,NaN,NaN,NaN,NaN
Matsumae,140.0933052,41.4213253,JMA,0.081,200.71,0.035,237.49,NaN,NaN,NaN,NaN,0.055,126.79,0.053,113.5,NaN,NaN,NaN,NaN
Mera,139.8233901,34.9194821,JMA,0.355,220.583,0.168,250.063,NaN,NaN,NaN,NaN,0.232,37.067,0.182,17.567,NaN,NaN,NaN,NaN
Mikawa,137.3280824,34.7276193,JMA,0.618,261.607,0.293,287.597,NaN,NaN,NaN,NaN,0.239,49.673,0.179,29.173,NaN,NaN,NaN,NaN
Mikuni,136.149764,36.2528984,JMA,0.056,168.72,0.018,192.66,NaN,NaN,NaN,NaN,0.049,211.46,0.051,183.27,NaN,NaN,NaN,NaN
Minamata,130.3784044,32.1942349,JMA,1.006,346.817,0.438,19.987,NaN,NaN,NaN,NaN,0.267,86.893,0.209,67.003,NaN,NaN,NaN,NaN
Minamidaito,131.2267884,25.870514,JMA,0.521,285.893,0.221,311.233,NaN,NaN,NaN,NaN,0.19,69.527,0.148,51.957,NaN,NaN,NaN,NaN
Minamitorishima,153.9768957,24.2825164,JMA,0.079,143.533,0.048,189.723,NaN,NaN,NaN,NaN,0.098,43.267,0.077,20.797,NaN,NaN,NaN,NaN
Misumi,130.4722516,32.6064053,JMA,1.189,349.46,0.521,23.2,NaN,NaN,NaN,NaN,0.273,87.03,0.21,67.01,NaN,NaN,NaN,NaN
Miyakejima (Ako),139.4769064,34.067538,JMA,0.345,236.973,0.166,263.853,NaN,NaN,NaN,NaN,0.221,45.117,0.173,25.897,NaN,NaN,NaN,NaN
Miyakejima (Tsubota),139.5463281,34.0560756,JMA,0.365,232.69,0.168,260.18,NaN,NaN,NaN,NaN,0.229,35.94,0.18,17.51,NaN,NaN,NaN,NaN
Miyako,141.9778827,39.6293287,JMA,0.302,184.323,0.14,222.153,NaN,NaN,NaN,NaN,0.239,25.007,0.195,7.467,NaN,NaN,NaN,NaN
Miyazu,135.1997425,35.5381348,JMA,0.063,157.82,0.023,178.47,NaN,NaN,NaN,NaN,0.051,206.72,0.051,179.14,NaN,NaN,NaN,NaN
Moji,130.9594465,33.9469651,JMA,0.675,357.377,0.303,27.347,NaN,NaN,NaN,NaN,0.164,101.613,0.138,88.163,NaN,NaN,NaN,NaN
Monbetsu,143.366667,44.35,JMA,0.176,163.337,0.082,207.307,NaN,NaN,NaN,NaN,0.215,41.323,0.211,18.033,NaN,NaN,NaN,NaN
Mori,140.5923074,42.1125524,JMA,0.34,183.51,0.157,222.76,NaN,NaN,NaN,NaN,0.236,25.27,0.191,8.73,NaN,NaN,NaN,NaN
Muroran,140.9536049,42.3445763,JMA,0.334,182.89,0.155,221.48,NaN,NaN,NaN,NaN,0.235,24.78,0.191,8.27,NaN,NaN,NaN,NaN
Murotomisaki,134.1617103,33.2628634,JMA,0.494,264.847,0.218,289.377,NaN,NaN,NaN,NaN,0.221,54.423,0.17,34.383,NaN,NaN,NaN,NaN
Nagoya,136.8801304,35.0894741,JMA,0.647,263.863,0.305,289.963,NaN,NaN,NaN,NaN,0.24,50.157,0.179,29.827,NaN,NaN,NaN,NaN
Nakagusukuwanko,127.8420985,26.3249192,JMA,0.566,289.973,0.235,314.283,NaN,NaN,NaN,NaN,0.216,74.967,0.162,55.717,NaN,NaN,NaN,NaN
Nakanoshima,129.849147,29.8376928,JMA,0.587,296.27,0.255,321.55,NaN,NaN,NaN,NaN,0.233,68.72,0.18,48.84,NaN,NaN,NaN,NaN
Nanao,136.9674395,37.0511988,JMA,0.062,169.797,0.022,196.237,NaN,NaN,NaN,NaN,0.053,210.903,0.054,184.943,NaN,NaN,NaN,NaN
Naze,129.4969315,28.3852209,JMA,0.561,298.04,0.244,323.67,NaN,NaN,NaN,NaN,0.201,74.64,0.152,56.37,NaN,NaN,NaN,NaN
Nemuro,145.5790415,43.345319,JMA,0.305,173.603,0.141,218.653,NaN,NaN,NaN,NaN,0.235,27.237,0.185,0.727,NaN,NaN,NaN,NaN
Nezugaseki,139.5432408,38.5620636,JMA,0.052,173.81,0.02,206.68,NaN,NaN,NaN,NaN,0.052,211.31,0.052,185.03,NaN,NaN,NaN,NaN
Niigatahigashiko,139.2190703,37.9912815,JMA,0.059,170.387,0.022,204.547,NaN,NaN,NaN,NaN,0.055,210.303,0.054,184.243,NaN,NaN,NaN,NaN
Niihama,133.2701431,33.9842121,JMA,1.107,52.927,0.413,87.467,NaN,NaN,NaN,NaN,0.327,102.573,0.238,79.583,NaN,NaN,NaN,NaN
Nishinomiya,135.3368574,34.7211249,JMA,0.29,310.033,0.168,322.093,NaN,NaN,NaN,NaN,0.253,70.977,0.187,47.487,NaN,NaN,NaN,NaN
Nishinoomote,130.9883807,30.7354678,JMA,0.589,292.73,0.258,317.97,NaN,NaN,NaN,NaN,0.23,68.26,0.18,48.58,NaN,NaN,NaN,NaN
Noto,137.1552759,37.5009107,JMA,0.058,165.82,0.021,192.04,NaN,NaN,NaN,NaN,0.054,209.16,0.054,182.15,NaN,NaN,NaN,NaN
Oarai,140.5748263,36.3075999,JMA,0.31,203.127,0.147,235.977,NaN,NaN,NaN,NaN,0.23,30.393,0.178,11.383,NaN,NaN,NaN,NaN
Odawara,139.1492597,35.23842,JMA,0.34,227.07,0.162,254.59,NaN,NaN,NaN,NaN,0.23,35.67,0.179,17.64,NaN,NaN,NaN,NaN
Odomari,130.686498,31.0234617,JMA,0.689,291.453,0.301,316.903,NaN,NaN,NaN,NaN,0.251,64.617,0.196,44.617,NaN,NaN,NaN,NaN
Ofunato,141.7309833,39.0690417,JMA,0.306,187.25,0.141,224.05,NaN,NaN,NaN,NaN,0.234,25.47,0.186,8.85,NaN,NaN,NaN,NaN
Oga,139.7075558,39.9518917,JMA,0.051,182.19,0.02,217.38,NaN,NaN,NaN,NaN,0.054,213.93,0.053,189.42,NaN,NaN,NaN,NaN
Ogi,138.2827107,37.815294,JMA,0.056,169.553,0.02,198.473,NaN,NaN,NaN,NaN,0.053,209.447,0.054,183.947,NaN,NaN,NaN,NaN
Okinawa,127.8252501,26.1810801,JMA,0.561,289.587,0.233,313.797,NaN,NaN,NaN,NaN,0.216,74.963,0.162,55.713,NaN,NaN,NaN,NaN
Okushiri,139.4581849,42.0620218,JMA,0.053,186.793,0.022,220.593,NaN,NaN,NaN,NaN,0.048,200.647,0.045,179.447,NaN,NaN,NaN,NaN
Okushiriko,139.5208512,42.175859,JMA,0.05,184.837,0.021,219.677,NaN,NaN,NaN,NaN,0.041,204.653,0.043,187.893,NaN,NaN,NaN,NaN
Oma,140.9,41.533333,JMA,0.202,184.85,0.094,222.51,NaN,NaN,NaN,NaN,0.097,16.18,0.072,0.7,NaN,NaN,NaN,NaN
Omaezaki,138.2179866,34.6163403,JMA,0.409,249.647,0.19,275.177,NaN,NaN,NaN,NaN,0.23,47.593,0.178,26.423,NaN,NaN,NaN,NaN
Ominato,141.15,41.25,JMA,0.198,183.33,0.092,221.12,NaN,NaN,NaN,NaN,0.057,19.99,0.039,7.38,NaN,NaN,NaN,NaN
Omuta,130.4163237,33.0100635,JMA,1.488,354.197,0.661,28.687,NaN,NaN,NaN,NaN,0.286,87.643,0.218,67.663,NaN,NaN,NaN,NaN
Onahama,140.9097955,36.9384612,JMA,0.305,201.13,0.145,234.37,NaN,NaN,NaN,NaN,0.218,32.76,0.173,16.08,NaN,NaN,NaN,NaN
Onizaki,136.8207708,34.9044391,JMA,0.622,263.127,0.292,289.277,NaN,NaN,NaN,NaN,0.239,50.143,0.179,29.703,NaN,NaN,NaN,NaN
Otaru,141.0277233,43.1880485,JMA,0.048,197.45,0.022,228.36,NaN,NaN,NaN,NaN,0.052,208.62,0.054,185.37,NaN,NaN,NaN,NaN
Otoshima,133.6878115,34.5099872,JMA,1.031,57.883,0.372,91.243,NaN,NaN,NaN,NaN,0.323,102.257,0.236,78.437,NaN,NaN,NaN,NaN
Oura,130.2137269,32.9830812,JMA,1.506,356.357,0.671,31.067,NaN,NaN,NaN,NaN,0.288,88.993,0.221,68.673,NaN,NaN,NaN,NaN
Owase,136.2053618,34.0762196,JMA,0.439,257.5,0.198,281.83,NaN,NaN,NaN,NaN,0.222,49.75,0.172,29.35,NaN,NaN,NaN,NaN
Oyamanohana,130.9071454,33.9127406,JMA,0.42,9.87,0.199,38.42,NaN,NaN,NaN,NaN,0.125,140.21,0.129,122.64,NaN,NaN,NaN,NaN
Rausu,145.1984336,44.0167982,JMA,0.173,163.88,0.077,207.98,NaN,NaN,NaN,NaN,0.198,52.21,0.2,31.57,NaN,NaN,NaN,NaN
Reihoku,130.0363907,32.4681606,JMA,0.825,324.963,0.369,351.173,NaN,NaN,NaN,NaN,0.255,75.577,0.197,55.907,NaN,NaN,NaN,NaN
Rumoi,141.6348136,43.9528733,JMA,0.047,205.233,0.022,234.983,NaN,NaN,NaN,NaN,0.053,206.947,0.052,183.787,NaN,NaN,NaN,NaN
Sado,138.5177291,38.3190576,JMA,0.056,170.257,0.021,201.647,NaN,NaN,NaN,NaN,0.054,208.753,0.055,184.363,NaN,NaN,NaN,NaN
Sakai,133.2462234,35.5481844,JMA,0.056,160.34,0.021,174.77,NaN,NaN,NaN,NaN,0.049,209.76,0.046,178.2,NaN,NaN,NaN,NaN
Sanban,133.982475,34.5999293,JMA,0.592,53.093,0.185,71.833,NaN,NaN,NaN,NaN,0.302,94.517,0.224,69.917,NaN,NaN,NaN,NaN
Sasebo,129.7232116,33.1603293,JMA,0.823,340.947,0.37,6.297,NaN,NaN,NaN,NaN,0.245,84.363,0.192,64.753,NaN,NaN,NaN,NaN
Sendaishinko,141.0271383,38.2680989,JMA,0.332,192.807,0.155,227.867,NaN,NaN,NaN,NaN,0.243,28.783,0.196,12.303,NaN,NaN,NaN,NaN
Setana,139.8456011,42.4526123,JMA,0.049,189.69,0.022,223.79,NaN,NaN,NaN,NaN,0.059,200.92,0.057,171.37,NaN,NaN,NaN,NaN
Shibushi,131.0870125,31.4591754,JMA,0.559,274.787,0.244,299.397,NaN,NaN,NaN,NaN,0.225,60.813,0.175,40.543,NaN,NaN,NaN,NaN
Shimizuminato,138.5142101,35.0139079,JMA,0.395,249.357,0.185,274.587,NaN,NaN,NaN,NaN,0.212,41.923,0.157,22.123,NaN,NaN,NaN,NaN
Shimoda,138.9588511,34.6753286,JMA,0.391,241.297,0.184,267.947,NaN,NaN,NaN,NaN,0.242,42.793,0.187,23.123,NaN,NaN,NaN,NaN
Shimokita,141.2414225,41.3666992,JMA,0.287,181.123,0.133,220.073,NaN,NaN,NaN,NaN,0.199,16.177,0.152,358.537,NaN,NaN,NaN,NaN
Shimotsu,135.1307795,34.1149616,JMA,0.45,275.873,0.214,298.943,NaN,NaN,NaN,NaN,0.238,57.107,0.181,35.777,NaN,NaN,NaN,NaN
Shinminato,137.1147787,36.7820613,JMA,0.058,166.647,0.021,193.787,NaN,NaN,NaN,NaN,0.052,209.743,0.052,182.903,NaN,NaN,NaN,NaN
Shiraoi,141.3192419,42.5166828,JMA,0.312,182.437,0.145,221.067,NaN,NaN,NaN,NaN,0.233,24.663,0.188,8.133,NaN,NaN,NaN,NaN
Shonanko,139.4788377,35.3044568,JMA,0.36,230.263,0.17,257.653,NaN,NaN,NaN,NaN,0.232,39.337,0.183,19.087,NaN,NaN,NaN,NaN
Soma,140.9610451,37.8322653,JMA,0.331,195.777,0.154,230.617,NaN,NaN,NaN,NaN,0.244,30.883,0.197,14.373,NaN,NaN,NaN,NaN
Sunatsu,130.8851676,33.8930716,JMA,0.407,11.063,0.197,38.583,NaN,NaN,NaN,NaN,0.108,140.637,0.109,125.137,NaN,NaN,NaN,NaN
Susa,131.5989057,34.6236219,JMA,0.124,65.27,0.063,81.88,NaN,NaN,NaN,NaN,0.091,205.75,0.105,178.49,NaN,NaN,NaN,NaN
Susaki,133.2891853,33.3847305,JMA,0.495,265.33,0.219,289.86,NaN,NaN,NaN,NaN,0.215,55.8,0.168,35.8,NaN,NaN,NaN,NaN
Suttsu,140.2338373,42.797906,JMA,0.044,195.633,0.022,229.833,NaN,NaN,NaN,NaN,0.042,206.767,0.039,194.267,NaN,NaN,NaN,NaN
Tachibana,134.6360796,33.8633174,JMA,0.443,264.443,0.21,289.943,NaN,NaN,NaN,NaN,0.223,57.677,0.169,36.857,NaN,NaN,NaN,NaN
Tadotsu,133.7414813,34.2760104,JMA,1.076,59.94,0.392,93.6,NaN,NaN,NaN,NaN,0.329,102.27,0.242,78.32,NaN,NaN,NaN,NaN
Tago,138.759779,34.8050128,JMA,0.404,248.707,0.189,274.647,NaN,NaN,NaN,NaN,0.208,48.763,0.162,29.563,NaN,NaN,NaN,NaN
Tajiri,134.3198427,35.5951146,JMA,0.061,157.297,0.022,174.697,NaN,NaN,NaN,NaN,0.051,207.873,0.052,179.733,NaN,NaN,NaN,NaN
Takamatsu,134.0519097,34.3610804,JMA,0.664,57.13,0.21,80.6,NaN,NaN,NaN,NaN,0.31,95.87,0.228,71.22,NaN,NaN,NaN,NaN
Tanegashima,130.9637541,30.4616686,JMA,0.549,275.187,0.239,301.457,NaN,NaN,NaN,NaN,0.216,59.513,0.164,40.923,NaN,NaN,NaN,NaN
Tannowa,135.1836656,34.3387814,JMA,0.312,294.573,0.172,310.513,NaN,NaN,NaN,NaN,0.253,65.827,0.192,43.747,NaN,NaN,NaN,NaN
Tateyama,139.8504185,34.9914548,JMA,0.373,227.9,0.172,254.3,NaN,NaN,NaN,NaN,0.242,37.85,0.169,17.45,NaN,NaN,NaN,NaN
Tobishima,139.5505445,39.1840336,JMA,0.053,174.76,0.02,207.68,NaN,NaN,NaN,NaN,0.053,210.43,0.054,185.39,NaN,NaN,NaN,NaN
Tokuyama,131.7965239,34.0491666,JMA,0.882,348.53,0.377,17.7,NaN,NaN,NaN,NaN,0.285,75.81,0.211,54.2,NaN,NaN,NaN,NaN
Tokyo,139.7693599,35.6495902,JMA,0.48,234.487,0.238,262.947,NaN,NaN,NaN,NaN,0.252,39.893,0.197,21.353,NaN,NaN,NaN,NaN
Tomakomaihigashi,141.8086633,42.6066493,JMA,0.311,182.897,0.145,221.637,NaN,NaN,NaN,NaN,0.233,24.943,0.185,7.863,NaN,NaN,NaN,NaN
Tosashimizu,132.9566623,32.7740058,JMA,0.516,268.397,0.228,292.627,NaN,NaN,NaN,NaN,0.222,56.073,0.171,36.173,NaN,NaN,NaN,NaN
Toyama,137.2268353,36.7656099,JMA,0.059,167.437,0.022,193.837,NaN,NaN,NaN,NaN,0.053,209.453,0.052,182.623,NaN,NaN,NaN,NaN
Tsuruga,136.0636093,35.6684974,JMA,0.058,160.727,0.021,183.467,NaN,NaN,NaN,NaN,0.051,206.433,0.053,179.223,NaN,NaN,NaN,NaN
Tsushimahitakatsu,129.4739667,34.6538215,JMA,0.322,354.383,0.158,19.873,NaN,NaN,NaN,NaN,0.031,116.497,0.037,122.377,NaN,NaN,NaN,NaN
Ube,131.2400008,33.9448686,JMA,1.046,351.58,0.457,21.4,NaN,NaN,NaN,NaN,0.301,77.8,0.227,56.18,NaN,NaN,NaN,NaN
Urakawa,142.7554232,42.1655219,JMA,0.305,182.287,0.142,221.367,NaN,NaN,NaN,NaN,0.234,25.683,0.196,7.623,NaN,NaN,NaN,NaN
Wajima,136.9037765,37.4016705,JMA,0.059,165.88,0.021,190.15,NaN,NaN,NaN,NaN,0.055,208.69,0.055,182.69,NaN,NaN,NaN,NaN
Wakkanai,141.6863048,45.4106886,JMA,0.022,188.243,0.02,218.263,NaN,NaN,NaN,NaN,0.065,236.117,0.063,209.847,NaN,NaN,NaN,NaN
Yaizu,138.3335959,34.8677982,JMA,0.409,248.033,0.189,273.763,NaN,NaN,NaN,NaN,0.229,44.597,0.174,23.097,NaN,NaN,NaN,NaN
Yatsushiro,130.5657658,32.5103339,JMA,1.12,347.957,0.492,21.667,NaN,NaN,NaN,NaN,0.271,87.633,0.211,67.373,NaN,NaN,NaN,NaN
Yokohama,139.6462986,35.4550319,JMA,0.445,233.4,0.219,261.99,NaN,NaN,NaN,NaN,0.246,39.45,0.194,20.86,NaN,NaN,NaN,NaN
Yokosuka,139.6571239,35.3012498,JMA,0.411,232.88,0.201,261.72,NaN,NaN,NaN,NaN,0.241,39.39,0.19,20.9,NaN,NaN,NaN,NaN
Yonaguni,122.9403118,24.4503418,JMA,0.444,306.6,0.19,329.15,NaN,NaN,NaN,NaN,0.201,96.95,0.167,73.92,NaN,NaN,NaN,NaN
Yoshima,133.8208781,34.3828106,JMA,0.903,57.647,0.314,88.587,NaN,NaN,NaN,NaN,0.323,99.583,0.24,75.573,NaN,NaN,NaN,NaN
Yoshioka,140.2611209,41.4762103,JMA,0.147,208.013,0.067,244.133,NaN,NaN,NaN,NaN,0.108,69.977,0.094,55.637,NaN,NaN,NaN,NaN
Anheung,126.1316457,36.6751528,KHAO,2.101,201.267,0.824,245.19,0.387,184.506,0.231,240.442,0.355,154.641,0.27,125.914,0.106,148.569,0.053,105.726
Ansan,126.647375,37.1912137,KHAO,2.694,224.923,1.081,272.393,0.486,209.931,0.303,267.65,0.387,165.781,0.29,136.35,0.112,160.884,0.056,115.737
Boryeong,126.4842361,36.4064434,KHAO,2.284,193.579,0.889,238.535,0.421,177.457,0.249,234.15,0.355,150.315,0.272,122.125,0.106,145.108,0.053,102.403
Busan,129.0345216,35.0959436,KHAO,0.375,338.563,0.177,6.072,0.073,333.319,0.049,358.599,0.044,11.456,0.017,343.19,0.013,12.868,0.001,332.5
Busan newport,128.786944,35.074444,KHAO,0.547,342.478,0.259,9.646,0.106,337.924,0.071,1.944,0.077,26.752,0.043,4.529,0.025,24.191,0.008,347.979
Chuja Islands,126.2999582,33.9612984,KHAO,0.865,64.946,0.338,87.427,0.191,52.58,0.09,82.044,0.264,86.132,0.199,64.302,0.085,81.615,0.041,48.069
Daesan,126.3517823,37.0077892,KHAO,2.48,217.435,0.989,263.697,0.449,202.143,0.275,258.755,0.382,162.102,0.287,133.084,0.111,156.026,0.055,112.473
Eocheongdo,125.985744,36.1167152,KHAO,1.82,186.14,0.703,229.412,0.342,169.189,0.192,225.5,0.326,148.321,0.253,119.954,0.1,142.269,0.05,99.628
Ganghwa bridge,126.5221695,37.7313392,KHAO,2.124,274.967,0.728,329.116,0.352,261.246,0.2,321.308,0.299,186.332,0.216,150.167,0.084,174.925,0.039,125.622
Geojedo,128.7004878,34.8015751,KHAO,0.581,345.721,0.271,12.105,0.115,340.114,0.075,3.315,0.1,36.045,0.061,15.03,0.032,34.474,0.011,4.986
Geomun-do,127.3087721,34.0289592,KHAO,0.86,17.208,0.385,41.017,0.181,10.277,0.105,34.252,0.23,66.824,0.168,44.385,0.075,62.046,0.033,29.06
Goheung,127.3424153,34.4811691,KHAO,1.017,14.061,0.453,39.195,0.21,6.765,0.123,32.419,0.246,57.728,0.177,33.435,0.078,52.541,0.035,17.227
Gunsan outer port,126.5641622,35.9764245,KHAO,2.181,184.734,0.845,228.627,0.404,168.118,0.236,224.05,0.348,145.461,0.266,117.758,0.104,140.423,0.053,97.729
Gwangyang,127.753423,34.9017527,KHAO,1,0.234,0.465,26.781,0.202,355.071,0.128,18.498,0.19,48.117,0.13,24.4,0.061,44.163,0.025,7.617
Heuksando,125.4357473,34.6851736,KHAO,1.066,137.864,0.366,175.653,0.213,119.821,0.102,171.695,0.238,121.866,0.19,98.975,0.075,118.594,0.039,81.816
Incheon,126.590476,37.4508531,KHAO,2.853,229.4,1.141,277.501,0.512,214.328,0.32,272.328,0.392,167.844,0.292,138.364,0.113,163.49,0.056,118.312
Incheon (Songdo),126.586854,37.3361496,KHAO,2.782,227.096,1.11,275.03,0.501,212.486,0.305,270.239,0.391,166.759,0.289,137.419,0.115,161.204,0.057,115.468
Janghang,126.6888853,36.0055379,KHAO,2.241,187.548,0.867,232.387,0.413,172.025,0.242,228.199,0.348,147.311,0.265,119.198,0.104,142.25,0.053,99.146
Jeju,126.5418338,33.5297744,KHAO,0.677,54.172,0.277,73.648,0.154,43.761,0.074,67.694,0.228,84.891,0.17,64.066,0.074,80.427,0.035,48.86
Jindo,126.308857,34.3776222,KHAO,1.073,68.591,0.414,92.983,0.229,55.607,0.111,88.094,0.291,83.875,0.221,60.281,0.09,78.664,0.044,43.388
Masan,128.5888151,35.208347,KHAO,0.589,343.781,0.277,11.301,0.115,339.095,0.079,2.871,0.08,27.403,0.044,3.994,0.026,28.899,0.008,352.719
Mokpo,126.3756976,34.7787643,KHAO,1.423,137.028,0.485,177.746,0.283,122.188,0.136,173.441,0.305,116.971,0.238,92.339,0.092,114.576,0.047,76.072
Moseulpo,126.2506366,33.2134089,KHAO,0.719,42.637,0.302,64.992,0.157,33.96,0.08,59.087,0.241,82.968,0.183,62.398,0.078,79.281,0.038,47.756
Pyeongtaek,126.8202374,36.9686209,KHAO,2.868,226.42,1.152,274.69,0.515,211.556,0.323,269.733,0.393,166.491,0.292,137.125,0.113,162.824,0.055,117.486
Seocheon,126.4943089,36.1273294,KHAO,2.164,184.839,0.835,228.39,0.403,168.58,0.229,224.268,0.351,145.43,0.268,117.146,0.108,139.284,0.054,95.214
Seogwipo,126.561114,33.2391255,KHAO,0.737,22.172,0.329,45.889,0.158,15.276,0.089,39.017,0.241,75.271,0.18,53.653,0.078,70.585,0.037,39.12
Seongsanpo,126.9279841,33.474736,KHAO,0.636,20.754,0.292,42.854,0.14,15.782,0.078,35.271,0.215,75.981,0.159,55.274,0.071,72.342,0.033,40.77
Taean,126.2337754,36.9122338,KHAO,2.325,213.976,0.921,259.534,0.426,198.641,0.254,255.205,0.372,160.427,0.28,131.311,0.111,154.39,0.055,109.332
Tongyeong,128.4355278,34.8274649,KHAO,0.755,351.633,0.35,17.778,0.152,346.086,0.098,9.477,0.146,44.891,0.098,22.169,0.048,42.773,0.019,8.997
Ulsan,129.3879209,35.5006008,KHAO,0.156,311.64,0.074,344.153,0.028,304.528,0.021,334.913,0.032,274.553,0.029,221.063,0.008,277.385,0.007,191.754
Wando,126.7586305,34.3175037,KHAO,1.028,35.795,0.442,59.696,0.218,26.809,0.12,53.261,0.267,70.383,0.197,46.745,0.085,65.404,0.039,30.59
Wido,126.3021884,35.6186108,KHAO,1.963,174.878,0.748,217.733,0.369,157.695,0.209,213.793,0.331,140.731,0.257,113.227,0.101,134.664,0.051,92.714
Yeongheung Island,126.4283442,37.2376442,KHAO,2.624,224.676,1.044,272.093,0.475,209.894,0.288,267.2,0.385,166.074,0.286,136.658,0.112,160.723,0.054,115.342
Yeongjong bridge,126.5850681,37.5453809,KHAO,2.894,232.575,1.15,281.588,0.518,218.25,0.316,276.866,0.39,169.841,0.287,140.736,0.112,164.9,0.055,119.785
Yeosu,127.764999,34.7471904,KHAO,0.94,358.969,0.434,25.235,0.19,352.812,0.12,17.533,0.188,47.901,0.129,23.895,0.06,44.062,0.025,8.834
"'Apra Harbor, Guam, United States of America'",144.6557315,13.4438226,NOAA,0.232,290.9,0.059,311.1,0.048,276.3,0.016,308.5,0.173,65.1,0.122,44.2,0.056,64.2,0.025,34.2
"'Diego Garcia, United Kingdom'",72.3933,-7.29,NOAA,0.494,263.4,0.284,293.9,0.089,260.1,0.079,288,0.035,64.9,0.041,71.3,0.012,47.1,0.01,40.6
"'Saipan,'",145.7370054,15.2271555,NOAA,0.188,296.2,0.043,305.3,0.046,278.9,0.015,300.7,0.167,64.9,0.113,45.6,0.061,66.7,0.025,33.3
"'Wake Island, Pacific Ocean,'",166.6133943,19.2887152,NOAA,0.288,115.1,0.146,150.1,0.048,106.4,0.042,144,0.063,45.1,0.051,14.7,0.02,43.6,0.013,3.9
AJERBANGIS,99.3728183,0.1990559,ST727,0.27,322.211,0.15,17.2,0.05,298.222,0.04,359.225,0.15,168.613,0.05,146.599,0.06,171.587,NaN,NaN
AMOY,118.167,24.383,ST727,1.867,124.627,0.408,180.7,0.236,95.682,0.111,184.643,0.265,155.872,0.195,133.856,0.088,153.828,0.038,122.811
ANDROSSAN,137.9270851,-34.4392295,ST727,0.625,189.851,0.634,248.7,0.033,298.023,0.186,248.52,0.266,263.71,0.183,246.841,0.071,257.49,0.042,236.413
AO KAULAK,98.2207747,8.5760247,ST727,0.719,88.111,0.351,124,0.165,80.922,0.094,123.425,0.116,224.713,0.061,178.399,0.04,225.287,NaN,NaN
BAIE LEBIAJA,136.7829645,54.9018507,ST727,1.814,177.443,0.664,225.5,0.363,177.442,0.183,225.461,0.61,111.23,0.521,85.213,0.204,111.27,0.105,85.212
BAIE UDSKI,135.3143338,54.7228332,ST727,0.975,190.443,0.488,202.4,0.183,190.442,0.122,202.361,0.274,99.73,0.244,91.713,0.091,99.67,0.061,91.712
BANDAR ABBAS,56.2819701,27.1697143,ST727,1,196.556,0.36,229,0.219,180.461,0.104,226.713,0.338,11.356,0.207,3.199,0.11,9.644,NaN,NaN
BAROES,98.35,2.017,ST727,0.25,330.303,0.16,3.3,0.05,325.342,0.04,12.266,0.12,182.633,0.06,147.67,0.05,170.667,NaN,NaN
BASSEIN,72.7948126,19.309275,ST727,NaN,NaN,NaN,NaN,NaN,NaN,NaN,NaN,0.476,344.795,0.21,340.285,0.159,345.205,NaN,NaN
BAUDIN ISLAND,125.6,-14.133,ST727,1.728,66.427,1.088,126.1,0.238,41.482,0.293,125.443,0.308,179.471,0.204,178.556,0.101,180.128,NaN,NaN
BAZARUTO,35.433,-21.65,ST727,1.15,51.032,0.72,100,0.19,32.121,0.19,99.836,0.02,91.918,0.03,356.114,0.01,92.082,NaN,NaN
BEACHPORT,140.0213359,-37.4869541,ST727,0.121,66.251,0.13,123.6,0.001,55.323,0.033,110.32,0.166,255.01,0.116,241.041,0.053,256.29,0.027,230.813
BENKOELEN,102.2546,-3.7843489,ST727,0.32,355.511,0.14,32.5,NaN,NaN,0.05,32.525,0.11,177.713,0.1,161.799,0.04,177.787,NaN,NaN
BRIGHTON,138.5155784,-35.0350645,ST727,0.441,188.451,0.432,249.4,0.026,280.523,0.128,249.52,0.244,266.21,0.163,247.641,0.072,261.99,0.041,234.013
CALICUTT,75.7591036,11.2636371,ST727,0.317,163.587,0.104,217,0.064,139.581,0.027,216.548,0.162,326.274,0.104,342.313,0.052,326.726,NaN,NaN
CALOUNDRA HEADS,153.1525749,-26.8009959,ST727,0.532,303.659,0.162,53.7,0.115,294.103,0.042,305.679,0.193,2.189,0.106,336.77,0.054,355.511,0.024,311.613
CAP ASTRONOMICHESKI,164.4814579,62.4160811,ST727,1.329,260.975,0.256,309,0.265,260.963,0.067,308.996,2.521,167.548,1.549,134.527,0.841,167.452,0.323,134.515
CAP CHIKHACHEVA,141.217,51.783,ST727,0.76,11.543,0.29,45.6,NaN,NaN,NaN,NaN,0.07,217.83,0.05,189.813,NaN,NaN,NaN,NaN
CAP MATOUGA,160.25,61.683,ST727,0.881,79.475,0.296,132.5,0.082,51.463,0.079,132.496,1.972,81.748,1.085,55.727,0.658,81.752,0.216,55.715
CASTLE PEAK BAY,113.9800034,22.3727149,ST727,0.48,55.127,0.17,88,0.13,42.482,0.05,87.343,0.42,191.672,0.29,132.456,0.14,192.328,0.08,158.811
CHEUSHI ISLAND,141.4317983,53.2950059,ST727,0.25,281.143,0.05,336.1,NaN,NaN,NaN,NaN,0.39,161.53,0.34,110.613,NaN,NaN,NaN,NaN
CHILOANE,34.883,-20.617,ST727,1.7,55.032,0.94,96,0.39,34.121,0.25,95.836,0.05,147.918,0.04,304.114,0.02,148.082,NaN,NaN
CHISIMAIO,42.5412131,-0.3866655,ST727,0.722,24.948,0.406,66.9,NaN,NaN,0.109,66.854,0.187,357.477,0.113,340.471,0.062,357.423,NaN,NaN
COCANADA,82.278882,16.9526847,ST727,0.461,88.487,0.195,121.5,0.097,80.481,0.052,119.548,0.106,256.774,0.042,250.713,0.029,260.726,0.002,323.707
COFFS HARBOUR,153.1445124,-30.3057802,ST727,0.527,299.759,0.148,313.9,0.105,291.403,0.044,302.679,0.176,341.789,0.098,310.07,0.052,336.411,0.023,293.213
CUDDALORE,79.7858968,11.7065366,ST727,0.259,81.587,0.107,119,0.052,86.581,0.027,122.548,0.098,261.274,0.018,231.313,0.034,258.726,0.003,132.307
DIAMOND ISLAND BASSEIN RIVER,94.2720673,15.8661434,ST727,0.668,92.403,0.304,125.4,0.138,85.442,0.081,120.466,0.129,245.733,0.049,229.67,0.041,240.667,0.003,168.709
DURBAN,31.0488842,-29.8663929,ST727,0.525,43.432,0.283,75.4,0.1,37.021,0.084,72.336,0.049,147.418,0.014,298.414,0.015,145.682,0.011,281.303
"EAST POINT, BYNOE HARBOUR",130.5642105,-12.5820157,ST727,1.719,244.851,0.899,292.9,0.323,231.822,0.244,291.82,0.619,191.41,0.311,182.441,0.207,191.39,NaN,NaN
ELEPHANT POINT,96.2854303,16.4853919,ST727,1.799,270.403,0.726,307.4,0.339,255.442,0.229,304.366,0.227,282.733,0.098,269.67,0.059,293.667,0.008,254.709
ENTREPOSTO DA MATOLA,32.5016522,-25.9624085,ST727,0.99,69.032,0.56,105,0.17,65.121,0.15,104.836,0.1,178.918,0.04,351.114,0.03,179.082,NaN,NaN
FALSE POINT,86.7872057,20.4043908,ST727,0.686,95.387,0.307,128.4,0.138,90.481,0.083,125.448,0.125,257.174,0.054,248.213,0.042,258.226,0.003,200.207
FRANKLIN HARBOUR,136.9360096,-33.6885739,ST727,0.224,198.151,0.231,248,0.02,310.722,0.067,245.02,0.299,277.91,0.203,261.141,0.08,275.89,0.041,248.913
GAUSS STATION,89.6176882,-66.0226189,ST727,0.23,199.725,0.12,281.7,0.059,157.77,0.035,268.691,0.194,277.346,0.208,270.379,0.064,258.354,0.058,263.324
GUNSAN KO,126.7242685,35.9879744,ST727,2.128,198.643,0.744,246.4,0.386,183.042,0.194,245.761,0.313,152.33,0.252,118.513,0.1,148.27,0.049,100.412
HAMAMASU,141.3808488,43.6021094,ST727,0.05,185.243,0.02,230.2,NaN,NaN,NaN,NaN,0.05,210.63,0.06,183.613,NaN,NaN,NaN,NaN
HANSTHAL POINT,70.3831306,22.911419,ST727,2.089,265.287,0.588,304.3,0.364,245.281,0.161,300.348,0.456,10.674,0.23,4.613,0.117,13.626,0.042,6.607
HOG BAY,137.9443781,-35.7177749,ST727,0.192,164.951,0.185,221.1,0.006,281.123,0.057,215.02,0.22,258.31,0.152,240.741,0.068,256.59,0.028,206.913
HONTO KO,141.8461376,46.6645262,ST727,0.051,276.943,0.02,284.7,0.014,263.042,0.005,279.961,0.062,204.73,0.07,181.713,0.022,198.97,0.015,161.312
HUKABORI,129.8186898,32.6844268,ST727,0.838,330.743,0.374,357,0.156,325.142,0.102,352.761,0.256,77.23,0.198,56.713,0.084,71.77,0.041,47.312
HUKURA URA (NARUTO),134.7183355,34.2544096,ST727,0.442,280.243,0.21,302.1,0.084,272.242,0.057,295.761,0.231,60.53,0.175,37.113,0.07,55.67,0.035,30.512
HUSAN KO,129.0332575,35.0841413,ST727,0.394,336.043,0.188,5,0.071,328.542,0.051,357.461,0.043,8.83,0.016,335.013,0.011,15.57,0.002,244.812
IDI,97.7837155,4.9650497,ST727,0.47,114.503,0.25,156.5,0.08,112.442,0.06,151.466,0.14,201.233,0.06,197.27,0.05,344.267,NaN,NaN
IWASAKI,139.9111151,40.5829511,ST727,0.054,182.043,0.022,216.5,0.013,162.442,0.007,207.761,0.052,214.73,0.052,189.613,0.018,207.47,0.01,173.112
KAIHYO TO,144.617,48.5,ST727,0.18,149.743,0.1,200.8,NaN,NaN,NaN,NaN,0.19,51.43,0.19,20.413,NaN,NaN,NaN,NaN
KARRAKATTA BAY,123.0405102,-16.3643441,ST727,2.24,103.827,1.283,161.1,0.375,85.382,0.347,160.443,0.241,189.672,0.186,171.156,0.079,190.328,NaN,NaN
KELVE (MAHIM),72.7268202,19.6174649,ST727,1.255,231.076,0.518,264.5,0.326,211.589,0.141,264.106,0.471,342.003,0.214,347.873,0.156,342.397,0.029,350.586
KHOR KAWI,56.3611636,26.3661156,ST727,0.689,193.064,0.253,227,0.174,172.241,0.067,226.671,0.262,9.836,0.158,11.228,0.085,10.164,NaN,NaN
KING SOUND,123.5991882,-17.28341,ST727,3.067,169.727,1.651,240.2,0.51,142.582,NaN,NaN,0.302,211.172,0.159,201.956,NaN,NaN,0.034,194.311
KINGSTON,139.8456227,-36.824687,ST727,0.144,62.351,0.166,117.5,0.008,197.623,0.05,112.72,0.186,257.51,0.128,236.541,0.054,256.49,0.023,221.913
KITA-NOBORIHO,142.567,48.1,ST727,0.2,165.843,0.1,215.9,NaN,NaN,NaN,NaN,0.17,61.43,0.17,33.413,NaN,NaN,NaN,NaN
KLEINE KAPOEAS RIVER,109.1738125,-0.0630409,ST727,0.16,284.719,0.09,299.7,0.03,265.702,NaN,NaN,0.39,18.892,0.32,318.827,0.1,21.908,NaN,NaN
KOTA AGOENG (SEMANGKA B.),104.6193566,-5.5012068,ST727,0.32,5.211,0.15,36.2,NaN,NaN,0.06,36.125,0.15,179.613,0.1,177.599,0.05,179.587,NaN,NaN
KUTEI RIVER (MUARA PEGAH),117.3042971,-0.8580466,ST727,0.51,281.416,0.4,334,0.03,287.39,0.11,333.4,0.21,161.2,0.15,146.216,0.07,161.8,NaN,NaN
LABOEAN BANGKAI,105.5127565,-5.9361983,ST727,0.29,7.011,0.16,82,NaN,NaN,0.07,82.025,0.12,165.513,0.04,131.499,0.04,165.487,NaN,NaN
LABUK BAY,117.7158842,6.2297987,ST727,0.448,85.127,0.244,122,0.101,78.482,0.067,121.343,0.351,207.672,0.354,166.456,0.116,208.328,0.067,151.811
LACROSSE ISLAND,128.3423611,-14.749253,ST727,1.747,283.727,0.759,328.2,0.317,267.582,0.204,327.543,0.54,205.471,0.347,191.656,0.177,206.128,NaN,NaN
LANKAYAN ISLAND,117.916013,6.5076324,ST727,0.334,78.127,0.183,107,0.049,70.482,0.049,106.343,0.334,201.672,0.304,166.456,0.11,202.328,NaN,NaN
LHO SEUMAWE,97.1490754,5.1949996,ST727,0.46,84.603,0.27,123.6,0.08,73.642,0.08,123.666,0.14,212.833,0.06,170.77,0.05,341.767,NaN,NaN
LINGA-LINGA,35.3963469,-23.7367272,ST727,0.76,62.032,0.44,107,0.18,61.121,0.12,106.836,0.02,126.918,0.01,286.114,0.01,127.082,NaN,NaN
LITTLE QUOIN ISLAND,56.5385227,26.4765801,ST727,0.768,185.064,0.274,221,0.171,169.241,0.073,220.671,0.287,359.836,0.204,355.228,0.095,0.164,NaN,NaN
MAKINO SIMA,129.0837206,35.0715779,ST727,0.4,333.943,0.18,6.9,NaN,NaN,NaN,NaN,0.04,357.93,0.02,329.913,NaN,NaN,NaN,NaN
MALINDI,40.1266264,-3.2145282,ST727,0.954,25.048,0.485,65,0.171,9.681,0.131,64.754,0.189,349.877,0.11,8.171,0.061,350.123,0.034,0.804
MAOKA KO (HONTOMARI),142.0404316,47.0530031,ST727,0.05,284.943,0.02,283,NaN,NaN,NaN,NaN,0.05,196.03,0.05,173.013,NaN,NaN,NaN,NaN
MASKAT,58.5966526,23.617,ST727,0.633,159.864,0.237,189.8,0.16,141.741,0.062,181.871,0.388,341.336,0.202,342.328,0.122,338.464,0.043,338.405
MERGUI,98.5901509,12.4431523,ST727,1.675,112.803,0.892,151.8,0.316,110.842,0.256,146.766,0.16,235.433,0.064,216.37,0.047,237.367,0.009,183.409
MESALE ISLAND,39.6,-5.233,ST727,1.116,25.048,0.564,66,0.201,3.681,0.152,65.754,0.226,351.877,0.104,358.171,0.076,352.123,NaN,NaN
MINABETU,143.6084059,46.395313,ST727,0.17,156.843,0.08,201.8,NaN,NaN,NaN,NaN,0.21,47.43,0.23,23.413,NaN,NaN,NaN,NaN
MINAMI-HUNAKOSI,144.667,48.7,ST727,0.2,148.643,0.09,196.7,NaN,NaN,NaN,NaN,0.17,50.33,0.18,28.313,NaN,NaN,NaN,NaN
MOGADISCIO,45.3498499,2.0300274,ST727,0.624,27.248,0.307,68.3,NaN,NaN,0.077,68.254,0.176,358.677,0.095,351.671,0.058,358.623,NaN,NaN
MOROZAKI,136.9785261,34.7014289,ST727,0.551,265.343,0.255,293.6,0.097,259.142,0.069,289.561,0.218,51.03,0.164,30.713,0.071,46.27,0.031,19.012
MURMAGAO,73.7942064,15.4200201,ST727,0.552,152.387,0.195,184.4,0.132,134.381,0.057,175.448,0.312,332.174,0.159,335.213,0.091,330.226,0.033,338.207
NAGASAKI,129.8684913,32.7380403,ST727,0.837,329.943,0.371,355.8,0.16,324.042,0.103,348.861,0.257,77.13,0.198,57.313,0.083,72.77,0.042,43.512
NAPIER BROOME BAY,126.583,-13.933,ST727,0.631,37.127,0.479,119.4,0.14,49.282,0.128,118.743,0.387,200.372,0.296,182.356,0.128,201.029,NaN,NaN
NAVINAR POINT,69.772576,22.7530639,ST727,1.842,244.387,0.577,275.4,0.385,231.381,0.113,283.448,0.466,353.174,0.208,356.213,0.086,2.226,0.045,359.207
NAYOSI,142.117,49.45,ST727,0.29,344.743,0.1,14.8,NaN,NaN,NaN,NaN,0.06,198.93,0.05,169.913,NaN,NaN,NaN,NaN
NEGAPATAM,79.8562656,10.7643861,ST727,0.216,91.287,0.082,123.3,0.048,79.281,0.026,125.348,0.067,267.174,0.027,242.113,0.024,265.126,0.002,190.107
NEWCHWANG,122.1435899,40.6314368,ST727,1.168,268.727,0.327,323.5,0.186,243.382,0.1,326.543,0.328,340.471,0.26,303.056,0.078,328.129,0.037,283.711
NOSAMU,143.033,47.233,ST727,0.17,164.943,0.09,209.9,NaN,NaN,NaN,NaN,0.19,59.93,0.18,24.013,NaN,NaN,NaN,NaN
NOTU MISAKI,142.167,48.15,ST727,0.11,299.643,0.03,331.7,NaN,NaN,NaN,NaN,0.05,190.83,0.05,169.813,NaN,NaN,NaN,NaN
OLEE LHEUE,95.2964435,5.5705024,ST727,0.42,95.403,0.17,132.4,NaN,NaN,0.05,132.366,0.11,210.733,0.08,195.67,0.04,210.667,NaN,NaN
OTOMARI KO ( KORSAKOV ),142.7573814,46.6223907,ST727,0.2,177.343,0.095,216.5,0.031,148.642,0.029,207.661,0.219,59.03,0.218,38.513,0.073,54.57,0.046,19.912
PALAU MANGALUM,115.6057078,6.2102393,ST727,0.235,88.127,0.104,118,0.055,102.482,0.027,117.343,0.341,191.672,0.311,163.456,0.113,192.328,NaN,NaN
PALOH R.,109.2681158,1.7392897,ST727,0.6,234.419,0.25,276.5,NaN,NaN,0.04,276.484,0.27,236.692,0.14,183.727,0.07,226.708,NaN,NaN
PASNI,63.4815248,25.2634904,ST727,0.719,165.572,0.256,192,0.171,174.021,0.07,191.63,0.28,335.315,0.207,346.256,0.094,335.685,NaN,NaN
PIGEON ISLAND,98.2155194,11.7832101,ST727,1.192,95.603,0.597,131,0.226,87.142,0.162,130.466,0.134,224.233,0.046,206.37,0.046,224.767,NaN,NaN
PINTO GEDONG,101.2841177,2.8834772,ST727,1.216,293.547,0.604,335.1,0.219,314.537,0.162,334.498,0.128,274.749,0.052,88.798,0.043,275.351,NaN,NaN
PORT ALBERT VICTOR,71.533,20.95,ST727,0.874,275.887,0.342,299.9,0.237,250.981,0.081,293.948,0.495,354.474,0.223,355.513,0.139,351.426,0.048,358.507
PORT ALFRED (INSIDE BAR),26.9031006,-33.6039319,ST727,0.453,52.032,0.232,87,0.064,42.121,0.064,86.836,0.04,122.918,0.012,296.114,0.012,123.082,NaN,NaN
PORTO DE MOCAMBIQUE,40.7355427,-15.02916,ST727,1.147,32.232,0.606,72.4,0.195,9.421,0.157,70.736,0.093,356.118,0.071,2.114,0.032,4.982,0.014,338.903
PORTO DO CHINDE,36.4597137,-18.573452,ST727,1.09,51.132,0.57,91.4,0.11,28.221,0.15,91.236,0.03,116.518,0.04,339.314,0.01,116.682,NaN,NaN
"PULAU BESIN, MERGUI ARCH.",98.4953918,9.9857948,ST727,1.143,95.603,0.582,133,0.213,92.142,0.158,132.466,0.143,225.233,0.049,196.37,0.049,225.767,NaN,NaN
PUSSER RIVER,89.5731315,21.7143486,ST727,0.798,110.903,0.352,153.1,0.147,98.842,0.096,156.466,0.108,273.633,0.057,240.57,0.036,270.767,0.015,54.509
QUELIMANE,36.8868838,-17.8854812,ST727,1.247,59.832,0.69,102.7,0.21,46.921,0.194,100.236,0.029,8.318,0.049,0.314,0.013,2.582,0.016,343.303
QUILON,76.5851103,8.8698556,ST727,0.219,197.587,0.116,279,0.058,201.581,0.03,278.548,0.183,352.274,0.049,358.313,0.058,352.726,NaN,NaN
REVAS BANDAR,72.9476289,18.8219456,ST727,1.233,203.678,0.499,242.3,0.298,185.945,0.136,241.897,0.413,338.899,0.209,346.479,0.137,339.301,0.047,353.747
ROBE,139.7533065,-37.1591302,ST727,0.135,58.851,0.153,114.4,0.002,224.823,0.043,118.32,0.172,253.21,0.127,236.441,0.052,246.19,0.031,225.913
SAGANOSEKI,131.8717133,33.2501304,ST727,0.566,337.043,0.244,7.2,0.092,326.042,0.066,7.261,0.26,72.13,0.208,57.113,0.087,72.07,0.038,64.512
SAGANOSEKI (SITA-URA),131.890317,33.2382766,ST727,0.551,320.543,0.235,345.7,0.106,308.842,0.061,342.361,0.249,68.93,0.19,45.913,0.079,62.47,0.039,36.512
SAKAEHAMA,142.8264414,47.41549,ST727,0.2,167.343,0.09,210.4,NaN,NaN,NaN,NaN,0.18,61.23,0.18,26.213,NaN,NaN,NaN,NaN
SECOND VALLEY,138.216696,-35.5102056,ST727,0.325,186.851,0.309,246.1,0.016,279.823,0.085,247.82,0.226,266.31,0.152,248.441,0.067,259.59,0.039,233.613
SERIA,114.3310104,4.6226679,ST727,0.207,91.127,0.076,121,0.046,89.482,0.021,120.343,0.354,192.672,0.311,153.456,0.119,193.328,0.04,125.811
Shanghai,121.9727995,31.2583713,ST727,0.939,136.527,0.415,180,0.161,126.982,0.121,177.343,0.229,94.371,0.143,50.456,0.064,100.828,0.022,46.411
SIGLI,95.9695731,5.3876998,ST727,0.34,83.003,0.24,123,0.09,58.042,0.07,135.966,0.09,214.033,0.04,193.97,NaN,NaN,NaN,NaN
SINGKEL,97.8050747,2.2670695,ST727,0.22,345.403,0.12,17.4,0.04,335.442,0.03,26.366,0.1,197.233,0.05,156.17,0.03,166.167,NaN,NaN
SIOGAMAKO(SENDAI),141.0466042,38.2669326,ST727,0.34,194.243,0.155,228.2,0.043,171.342,0.043,222.461,0.243,29.03,0.195,11.713,0.078,27.57,0.042,3.312
SNAPPER ROCKS(DANGER POINT),153.5499356,-28.1613722,ST727,0.512,302.259,0.146,312.5,0.098,295.303,0.043,306.579,0.173,351.289,0.099,320.77,0.057,343.811,0.02,291.313
SONI MISAKI,141.917,46.05,ST727,0.07,225.143,0.03,255.2,NaN,NaN,NaN,NaN,0.11,133.13,0.12,109.113,NaN,NaN,NaN,NaN
"TAPA BAY, BYNOE HARBOUR",130.6,-12.45,ST727,1.646,240.751,0.914,286.8,0.274,217.823,0.244,285.82,0.579,191.41,0.335,179.441,0.183,191.39,NaN,NaN
TAPA TOEAN,97.1807115,3.251521,ST727,0.18,350.703,0.08,42.7,NaN,NaN,0.02,42.666,0.1,197.833,0.07,195.87,0.03,197.867,NaN,NaN
TARAIKA KAWA,143.3254112,49.2897007,ST727,0.23,161.343,0.11,201.4,NaN,NaN,NaN,NaN,0.16,58.73,0.17,28.713,NaN,NaN,NaN,NaN
TELLICHERRY,75.4879031,11.7440127,ST727,0.396,160.587,0.058,266,0.082,303.581,0.015,265.548,0.244,348.274,0.076,312.313,0.082,348.726,NaN,NaN
"TELOEKBETOENG, (LAMPONG B.)",105.2661362,-5.4605734,ST727,0.32,11.511,0.14,51.5,0.06,341.522,0.05,35.525,0.16,163.713,0.08,159.799,0.04,125.787,NaN,NaN
TERN ISLAND,142.7575638,-10.9988204,ST727,0.765,35.159,0.512,1,0.302,27.603,0.137,0.179,0.415,56.589,0.192,10.57,0.137,57.411,NaN,NaN
TIENTSIN ENTRANCE,117.899814,38.9600465,ST727,0.935,219.627,0.242,288.6,0.126,192.582,0.083,289.643,0.245,28.271,0.176,356.256,0.044,75.328,0.037,324.311
TIGABU ISLAND,117.4776356,6.8931401,ST727,0.334,80.127,0.177,113,0.055,52.482,0.049,112.343,0.365,199.672,0.31,168.456,0.122,200.328,NaN,NaN
TINNANPO KO,125.3668633,38.7150351,ST727,1.815,359.943,0.601,5.6,0.318,338.642,0.153,43.661,0.369,208.73,0.25,173.013,0.121,201.67,0.041,149.112
TJALANG,95.5700574,4.6355082,ST727,0.14,20.903,0.1,54.9,NaN,NaN,0.03,54.966,0.08,176.433,0.05,226.47,0.04,176.467,NaN,NaN
TOBA KO,136.8476182,34.4816159,ST727,0.533,264.143,0.245,291.4,0.09,261.042,0.07,285.161,0.226,52.23,0.174,30.213,0.078,49.37,0.04,18.312
TOBUTI KO,143.3335138,46.5081511,ST727,0.15,192.343,0.08,235.3,NaN,NaN,NaN,NaN,0.19,71.63,0.21,51.713,NaN,NaN,NaN,NaN
TOMOGA SIMA,134.9978809,34.2800947,ST727,0.388,282.543,0.198,305.4,0.04,278.142,0.057,302.061,0.253,66.13,0.187,46.913,0.084,69.17,0.04,34.912
TONOURA (HAMADA),132.0750681,34.9071111,ST727,0.082,89.443,0.04,102.1,0.019,91.242,0.01,96.261,0.069,219.73,0.084,193.313,0.024,216.97,0.02,175.912
TUKIZI TOKYO KO,139.7677511,35.6583094,ST727,0.501,242.843,0.239,273.5,0.073,238.742,0.078,263.961,0.246,44.63,0.186,26.813,0.082,41.27,0.04,13.812
TURTLE ISLAND,136.9642963,-15.5851082,ST727,0.344,121.651,0.091,193,0.067,98.823,0.024,192.22,0.396,298.11,0.32,130.541,0.131,298.89,NaN,NaN
TUTICORIN,78.2307667,8.7462202,ST727,0.202,246.687,0.143,287.7,0.025,236.681,0.039,286.748,0.091,308.874,0.036,328.813,0.023,290.826,0.01,359.807
TYUSAN PO,129.4497101,36.5127361,ST727,0.04,199.143,0.01,219.1,NaN,NaN,NaN,NaN,0.04,223.53,0.04,191.613,NaN,NaN,NaN,NaN
URUSAN WAN,129.4063998,35.467699,ST727,0.17,310.143,0.09,347.2,NaN,NaN,NaN,NaN,0.03,278.63,0.03,218.613,NaN,NaN,NaN,NaN
UYUZYUT ISLAND,141.2034387,52.8215644,ST727,0.05,120.543,0.02,243.6,NaN,NaN,NaN,NaN,0.2,245.83,0.18,196.813,NaN,NaN,NaN,NaN
WEI-HAI-WEI,122.1662275,37.497821,ST727,0.594,70.627,0.179,117.7,0.094,48.682,0.055,108.643,0.22,188.872,0.13,144.856,0.055,189.828,0.019,126.811
YOBUKO KO,129.889963,33.5480396,ST727,0.595,3.143,0.282,26.3,0.135,353.442,0.095,15.161,0.162,117.63,0.151,100.813,0.063,114.37,0.033,88.512
DART 21419  SE Kuri,155.736,44.455,Truth_Pelagic,0.208,152.22,0.089,212.84,0.026,105.04,0.024,206.6,0.268,6.24,0.212,346.24,0.087,3.2,0.043,335.81
DART 23227  Bay_Ben,88.792,6.255,Truth_Pelagic,0.148,44.46,0.064,63.15,0.034,41.44,0.017,61.86,0.064,214.77,0.026,182.04,0.018,216.02,0.007,90.5
DART 23228  Arabian,65.347,20.799,Truth_Pelagic,0.596,152.95,0.23,181.83,0.145,134.39,0.065,181.34,0.374,336.98,0.19,337.72,0.119,336.28,0.042,346.47
DART 55012  Austral,158.4,-15.799,Truth_Pelagic,0.158,282.34,0.098,265.92,0.046,284.03,0.026,259.69,0.22,35.4,0.11,10.86,0.065,31.42,0.019,351.67
DART 55023  Coral S,153.58,-14.8,Truth_Pelagic,0.28,328.35,0.162,292.8,0.088,313.81,0.043,289.81,0.261,35.82,0.129,10.22,0.078,32.2,0.023,346.13
DART_21413 (2006,152.118,30.55,Truth_Pelagic,0.112,178.34,0.07,224.22,0.008,141.92,0.02,216.67,0.142,30.3,0.115,8.8,0.045,28.27,0.024,358.13
DART_21416   (2007,163.488,48.044,Truth_Pelagic,0.195,125.93,0.064,206.71,0.039,70.2,0.017,203,0.299,346.06,0.222,327.92,0.096,343.15,0.043,318.37
DART_21418 (2007,148.694,38.711,Truth_Pelagic,0.217,178.03,0.109,223.48,0.025,147.61,0.031,217.67,0.205,21.71,0.167,3.29,0.065,21.1,0.035,352.26
DART_23401 (2006,88.54,8.905,Truth_Pelagic,0.263,63.4,0.114,89.37,0.056,57.71,0.031,88.31,0.078,227.58,0.028,200.35,0.024,228.85,0.003,131.4
DART_52401   (2007,155.766,19.286,Truth_Pelagic,0.129,123.13,0.083,159.16,0.018,108.98,0.024,152.22,0.121,53.16,0.087,26.87,0.038,51.28,0.018,15.51
DART_52402   (2006,154.584,11.569,Truth_Pelagic,0.145,120.52,0.118,147.28,0.021,130.4,0.033,140.94,0.153,61.66,0.099,38.9,0.048,60.46,0.02,27.6
DART_52403   (2006,145.597,4.033,Truth_Pelagic,0.157,291.09,0.005,194.91,0.044,261.16,0.002,123.82,0.21,65.35,0.132,49.17,0.066,64.59,0.026,40.47
DART_52404   (2006,132.223,20.949,Truth_Pelagic,0.497,288.53,0.212,313.85,0.095,277.71,0.058,308.68,0.171,73.23,0.131,56.8,0.055,71.52,0.028,44.46
DART_52405   (2006,132.333,12.881,Truth_Pelagic,0.52,290.56,0.217,318.4,0.099,276.86,0.059,314.19,0.18,76.35,0.125,62.09,0.058,74.93,0.026,53.55
DART_52406   (2008,165.081,-5.332,Truth_Pelagic,0.501,145.43,0.277,154.48,0.104,145.24,0.077,148.64,0.157,54.58,0.09,34.95,0.047,51.89,0.017,24.91
DART_56001   (2009,110.004,-13.961,Truth_Pelagic,0.469,34.29,0.249,94.37,0.087,3.13,0.069,93.08,0.202,163.99,0.127,155.58,0.062,161.63,0.029,142.43
DART_56003   (2009,117.989,-15.021,Truth_Pelagic,0.807,54.02,0.45,110.38,0.14,25.71,0.127,108.56,0.227,168.29,0.142,158.39,0.069,165.75,0.032,145.43
GLOUP 000095 ck2.,53.472,-46.871,Truth_Pelagic,0.143,152.83,0.039,189.34,0.033,134.15,0.01,184.41,0.025,151.57,0.023,279.96,0.006,154.22,0.009,260.96
GLOUP 000139 id2.,66.828,-28.32,Truth_Pelagic,0.407,237.04,0.242,271.1,0.07,231.02,0.07,266.97,0.08,121.25,0.032,112.15,0.026,117.79,0.004,116.82
GLOUP 000182 amst,77.583,-37.901,Truth_Pelagic,0.417,228.99,0.228,271.97,0.077,212.78,0.064,268.73,0.076,146.19,0.036,165.99,0.023,147.16,0.009,180.02
IAPSO 2.2.9 33,137.583,33.767,Truth_Pelagic,0.412,255,0.189,279.04,0.071,250,0.053,275,0.213,47,0.162,28,0.068,47,0.033,19
IAPSO 2.3.6      2,164.417,-2,Truth_Pelagic,0.517,139,0.304,151.46,0.108,139,0.086,146,0.155,58,0.091,37,0.048,55,0.017,19
IAPSO 4.1.4     44,146.217,-44.117,Truth_Pelagic,0.12,353,0.06,116.03,0.037,306,0.015,122,0.186,275,0.129,254,0.059,270,0.03,236
KESS_b1  2004-2006,144.57,37.11,Truth_Pelagic,0.25,192.34,0.124,230.55,0.026,180.1,0.035,224.09,0.212,28.12,0.171,10.05,0.068,26.17,0.035,359.94
KESS_b3  2004-2006,146.46,37.1,Truth_Pelagic,0.226,188.28,0.115,229.19,0.021,171.87,0.032,222.24,0.203,26.41,0.165,7.9,0.066,24.01,0.034,358.36
KESS_c6  2004-2006,148.85,36.35,Truth_Pelagic,0.192,183.77,0.102,227.99,0.015,160.56,0.029,221.71,0.187,24.46,0.152,5.39,0.06,22.34,0.031,355.83
KESS_d4 2004-2006,146.45,35.59,Truth_Pelagic,0.209,194.27,0.11,233.46,0.018,184.61,0.031,227.14,0.194,28.73,0.157,9.93,0.062,26.72,0.032,0.1
KESS_f3 2004-2006,145.5,34.01,Truth_Pelagic,0.205,204.63,0.11,240.28,0.02,205.49,0.031,233.77,0.189,32.99,0.152,13.96,0.061,31.05,0.031,3.98
KESS_h6  2004-2006,148.35,32.37,Truth_Pelagic,0.156,198.66,0.09,237.32,0.011,203.36,0.025,230.76,0.167,31.74,0.134,11.69,0.053,29.76,0.028,1.7
KESS_i1  2004-2006,144.09,31.49,Truth_Pelagic,0.204,223.54,0.109,252.99,0.025,232.97,0.03,246.49,0.181,40.26,0.143,21.14,0.058,38.42,0.03,11.02
URI ECS053 East Chi,127.571,27.971,Truth_Pelagic,0.557,305.84,0.238,330.97,0.109,299.37,0.066,326.86,0.214,79.82,0.163,60.02,0.069,78.28,0.033,48.68
55538 Kerema Bay,145.5,-8.183,Truth_Shelf,0.56,353.06,0.346,317.1,0.205,341.5,0.094,313.98,0.294,42.29,0.138,19.67,0.086,38.41,0.017,21.91
55630 Delami I.,149.817,-10.533,Truth_Shelf,0.413,345.06,0.241,310.2,0.144,332.6,0.071,309.18,0.285,37.79,0.132,9.47,0.083,33.31,0.025,352.41
55870 Woodlark I.,152.9836512,-9.2527956,Truth_Shelf,0.028,30.16,0.078,207.2,0.029,308.2,0.021,199.58,0.251,47.59,0.132,24.07,0.075,43.81,0.021,9.21
57930 Bramble Cay,143.883,-9.133,Truth_Shelf,0.708,10.96,0.422,341.7,0.205,0.2,0.108,335.08,0.327,49.09,0.154,16.17,0.094,46.51,0.025,353.71
57935 Stephens I.,143.55,-9.5,Truth_Shelf,0.74,21.66,0.453,353.1,0.265,6.6,0.125,349.58,0.366,51.09,0.17,18.37,0.11,48.01,0.03,358.61
58025 Phipi Reef,142.533,-9.6,Truth_Shelf,0.295,91.56,0.581,66.5,0.154,83,0.149,59.98,0.516,82.79,0.338,49.27,0.149,80.11,0.032,14.51
58070 Coconut I.,143.067,-10.05,Truth_Shelf,0.693,44.86,0.518,20.7,0.209,34.1,0.141,20.68,0.405,54.09,0.195,24.57,0.134,54.11,0.037,1.61
58073 Poll I.,142.817,-10.25,Truth_Shelf,0.595,57.86,0.52,32.4,0.211,45.5,0.133,25.78,0.434,62.29,0.193,21.07,0.125,59.71,0.039,6.71
58240 Proudfoot Sho,141.467,-10.517,Truth_Shelf,0.75,190.96,0.148,277.4,0.171,154.6,0.05,246.18,0.678,34.19,0.43,340.37,0.177,26.11,0.083,317.61
58540 Raine I.,144.05,-11.6,Truth_Shelf,0.476,348.26,0.295,307,0.172,327.7,0.077,302.38,0.3,41.49,0.146,14.67,0.088,37.41,0.029,347.31
58680 Chapman I.,143.6,-12.883,Truth_Shelf,0.545,355.46,0.311,312.9,0.174,331.5,0.086,311.58,0.317,44.59,0.145,16.07,0.096,41.01,0.028,355.41
"58890 Lizard I., QL",145.4439382,-14.6644798,Truth_Shelf,0.532,346.16,0.329,309.6,0.168,339.7,0.09,305.68,0.311,43.39,0.141,14.07,0.093,40.41,0.031,15.51
59190 Pith Reef,147.017,-18.217,Truth_Shelf,0.549,342.96,0.307,302.1,0.172,326.2,0.084,297.68,0.339,38.09,0.156,9.67,0.101,34.31,0.03,345.51
59450 Bugatti Reef,150.3,-20.083,Truth_Shelf,0.749,10.76,0.288,348.7,0.206,354.6,0.082,346.98,0.326,33.39,0.153,7.27,0.098,30.31,0.03,347.71
59500 Penrith I.,149.9,-21,Truth_Shelf,1.516,27.76,0.566,13.6,0.384,23.9,0.148,10.58,0.37,36.49,0.184,8.67,0.105,34.81,0.037,357.31
59550 Bell Cay,151.25,-21.817,Truth_Shelf,1.127,2.06,0.456,357.5,0.207,357.5,0.133,351.58,0.308,17.29,0.162,351.77,0.092,15.51,0.043,343.71
59620 High Peak I.,150.683,-21.95,Truth_Shelf,1.496,8.16,0.563,4.5,0.392,2.8,0.166,0.68,0.348,23.09,0.169,354.37,0.096,25.81,0.051,340.81
59700 Heron I.,151.917,-23.45,Truth_Shelf,0.829,322.26,0.289,318.6,0.182,302.9,0.088,312.68,0.251,8.89,0.13,336.67,0.072,7.61,0.024,303.31
60585 Hogan I.,146.9777643,-39.215936,Truth_Shelf,0.671,28.66,0.112,209.9,0.194,358.7,0.022,221.68,0.212,295.59,0.138,277.27,0.063,291.41,0.038,252.91
60610 Rabbit I.,146.517,-38.917,Truth_Shelf,0.697,43.16,0.169,216.6,0.165,7.7,0.034,228.38,0.238,297.99,0.158,273.77,0.071,293.71,0.038,251.91
60617 Curtis I.,146.717,-39.483,Truth_Shelf,0.81,32.36,0.133,201.9,0.199,353.2,0.026,213.68,0.203,296.39,0.131,271.57,0.061,292.21,0.039,245.61
60875 Three Hummock,144.833,-40.45,Truth_Shelf,0.782,62.16,0.101,172.8,0.182,37.7,0.015,181.38,0.13,301.29,0.097,269.77,0.039,299.81,0.027,268.91
61930 Wedge I.,136.567,-35.167,Truth_Shelf,0.163,108.55,0.169,149.3,0.013,188.52,0.048,148.12,0.207,251.31,0.151,233.84,0.063,243.89,0.033,216.81
61937 Shelf Edge Mo,135.75,-35.767,Truth_Shelf,0.135,71.15,0.149,109.7,0.01,156.62,0.043,111.42,0.177,244.11,0.133,227.84,0.056,240.09,0.029,215.31
61960 Pearson I.,134.2667425,-33.9287271,Truth_Shelf,0.202,77.75,0.232,110.4,0.026,156.72,0.075,105.82,0.161,235.31,0.14,223.34,0.054,229.39,0.035,212.81
62010 St Francis I.,133.317,-32.5,Truth_Shelf,0.246,75.45,0.313,109.3,0.035,231.02,0.101,105.52,0.183,236.11,0.12,224.34,0.062,229.39,0.052,245.71
62490 Barrow I.,115.4965259,-20.7264174,Truth_Shelf,0.794,74.43,0.442,136.9,0.14,45.78,0.123,134.94,0.217,173.77,0.141,164.26,0.065,171.43,0.031,155.31
62501 North West I.,115.512408,-20.3529582,Truth_Shelf,0.656,67.23,0.369,127.6,0.112,49.48,0.098,127.84,0.199,170.57,0.131,164.16,0.064,168.83,0.035,166.71
62610 Bedout I.,119.1024033,-19.6014554,Truth_Shelf,1.626,67.83,1.026,129.1,0.279,40.98,0.289,127.14,0.252,189.37,0.107,157.46,0.073,187.93,NaN,NaN
62990 North Maret I,124.983,-14.4,Truth_Shelf,1.896,68.43,1.229,124,0.295,54.68,0.354,122.34,0.324,182.27,0.188,174.86,0.094,183.93,0.043,171.31
63022 Heywood Shoal,124.05,-13.467,Truth_Shelf,1.506,63.63,0.946,121.5,0.259,39.38,0.273,119.94,0.297,175.47,0.236,159.66,0.086,176.93,0.07,152.21
63023 Pee Shoal,124.833,-11.767,Truth_Shelf,0.907,79.03,0.515,122.5,0.179,63.18,0.148,120.84,0.344,182.47,0.202,167.76,0.1,183.93,0.052,175.11
63028 Van Cloon Sho,126.417,-12.65,Truth_Shelf,0.556,76.03,0.376,122.3,0.071,62.18,0.106,121.44,0.406,184.97,0.228,176.56,0.113,184.73,0.047,159.31
63040 Lesueur I.,127.283,-13.833,Truth_Shelf,0.391,305.73,0.063,3.4,0.075,290.58,0.018,1.84,0.567,202.67,0.321,198.86,0.152,205.43,0.039,199.61
63107 Calder Shoal,129.067,-10.85,Truth_Shelf,0.634,165.85,0.291,222.3,0.119,148.32,0.082,225.42,0.434,188.51,0.234,174.84,0.124,187.99,0.048,156.81
63177 Cape Scott (o,129.533,-13.417,Truth_Shelf,1.433,245.45,0.685,292.4,0.224,220.72,0.192,290.12,0.526,192.41,0.329,182.54,0.147,194.99,0.061,164.51
63447 Cape Wessel w,136.017,-10.917,Truth_Shelf,0.988,297.45,0.333,4.7,0.225,278.92,0.106,351.02,0.348,287.41,0.391,251.94,0.086,276.79,0.096,213.31
63483 Truant I.,136.817,-11.65,Truth_Shelf,0.848,330.85,0.265,44.3,0.18,300.72,0.088,24.62,0.325,313.71,0.254,252.34,0.077,309.69,0.045,217.91
63514 Cape Beatrice,136.95,-14.283,Truth_Shelf,0.07,90.15,0.009,125.1,0.02,50.42,0.001,147.62,0.278,212.41,0.25,150.04,0.079,193.79,0.051,104.51
63587 Nassau R. (OF,140.2,-15.4,Truth_Shelf,0.041,140.76,0.04,280.9,0.003,198.2,NaN,NaN,0.513,153.49,0.364,90.27,0.144,156.11,0.073,53.71
"Ashmore, Timor Sea",123,-12.22,Truth_Shelf,0.932,66.01,0.522,118.54,0.163,42.43,0.144,117.83,0.26,177.42,0.161,166.3,0.079,174.16,0.036,160.13
Korea Str N2,129.67,35.2,Truth_Shelf,0.171,344,0.092,12.7,0.032,336.3,0.025,3.2,0.01,206.5,0.023,171.1,0.003,197.6,NaN,NaN
Korea Str N4,130.21,34.84,Truth_Shelf,0.199,7.2,0.107,31.2,0.038,2.5,0.029,22,0.043,160.5,0.051,144.1,0.014,156.7,NaN,NaN
Korea Str N6,130.65,34.5,Truth_Shelf,0.234,23.9,0.123,45,0.046,19.9,0.034,35.8,0.084,166.7,0.091,144.9,0.027,162.9,NaN,NaN
Korea Str S2,128.12,34.13,Truth_Shelf,0.801,0.9,0.372,25.2,0.165,352.1,0.106,16.4,0.184,65.8,0.133,44.1,0.062,59.3,NaN,NaN
Korea Str S4,128.56,33.74,Truth_Shelf,0.739,359,0.348,23.3,0.15,351,0.098,14.2,0.178,80.2,0.136,61.3,0.056,74.7,NaN,NaN
Korea Str S6,129,33.35,Truth_Shelf,0.728,358,0.343,22.2,0.148,350.4,0.097,12.6,0.2,93.4,0.161,74.7,0.063,88.7,NaN,NaN
"Roti, Savu Sea",122.682,-10.815,Truth_Shelf,0.84,69.86,0.453,120.15,0.148,47.15,0.128,120.29,0.267,173.67,0.167,163.95,0.081,170.66,0.038,154.49
South China ASIAEX,117.058,22.186,Truth_Shelf,0.119,36.8,0.042,28.7,NaN,NaN,NaN,NaN,0.251,169.2,0.242,131.1,NaN,NaN,NaN,NaN
South China ASIAEX,117.283,21.614,Truth_Shelf,0.13,5.3,0.052,19.6,NaN,NaN,NaN,NaN,0.254,170.6,0.237,127.4,NaN,NaN,NaN,NaN
Yellow Sea NRL-A,125.251,33.267,Truth_Shelf,0.647,71.5,0.248,86.1,0.137,55.2,0.068,95,0.205,86.2,0.145,65.5,0.068,77.2,NaN,NaN
Yellow Sea NRL-B,125,33.75,Truth_Shelf,0.702,95.9,0.236,114,0.142,75.7,0.068,124.6,0.189,94.7,0.136,75.3,0.063,84.9,NaN,NaN
Cochin,76.2850633,9.9497534,UHSLC_Fast,0.202,185.483,0.079,238.3,0.044,157.801,0.021,242.688,0.173,336.636,0.086,347.682,0.053,335.234,0.021,354.333
Diego Garcia,72.427936,-7.2315525,UHSLC_Fast,0.492,263.473,0.284,293.384,0.089,260.538,0.079,288.537,0.038,72.481,0.04,67.529,0.013,61.322,0.009,55.176
Jask Harbour,57.765451,25.6510253,UHSLC_Fast,0.702,158.813,0.273,188.779,0.173,141.99,0.073,184.703,0.398,340.855,0.21,342.045,0.123,339.041,0.045,344.526
Kerguelen Island,70.1309215,-49.4121377,UHSLC_Fast,0.522,190.17,0.22,230.331,0.114,172.372,0.06,227.516,0.079,151.41,0.019,116.935,0.024,144.682,0.002,133.921
Ko Miang,97.6337724,8.5781143,UHSLC_Fast,0.713,88.85,0.348,123.84,0.136,84.677,0.096,118.264,0.129,223.255,0.051,193.733,0.04,220.743,0.008,145.114
Lord Howe Is.,159.066667,-31.5333333,UHSLC_Fast,0.6,302.101,0.176,319.65,0.124,293.739,0.051,310.973,0.137,352.89,0.077,318.302,0.041,347.069,0.017,292.641
Malakal,134.4579471,7.3297659,UHSLC_Fast,0.524,300.867,0.208,331.726,0.101,286.101,0.058,324.166,0.198,85.017,0.147,67.313,0.064,86.246,0.026,57.65
Male (Hulhule),73.5240818,4.1977744,UHSLC_Fast,0.235,226.111,0.138,270.473,0.035,208.654,0.036,267.139,0.116,344.926,0.063,359.539,0.037,341.376,0.016,7.904
Marion Is.,37.869613,-46.8728418,UHSLC_Fast,0.23,79.34,0.121,99.725,0.051,74.845,0.031,94.823,0.025,147.186,0.025,299.263,0.006,142.846,0.01,279.304
Mawson,62.8666667,-67.6,UHSLC_Fast,0.032,233.499,0.112,9.254,0.022,176.915,0.033,11.293,0.233,292.149,0.252,284.92,0.077,291.966,0.059,276.396
Meulaboh,96.1326171,4.1271055,UHSLC_Fast,0.163,8.049,0.08,38.433,0.031,358.322,0.022,37.082,0.085,195.754,0.045,167.907,0.026,194.436,0.009,129.366
Minicoy,73.05,8.11666667,UHSLC_Fast,0.258,179.172,0.105,227.075,0.053,153.296,0.027,226.758,0.208,335.436,0.104,344.939,0.06,335.462,0.024,353.019
Port Blair,92.7666667,11.6833333,UHSLC_Fast,0.553,97.787,0.274,133.87,0.113,92.221,0.067,128.068,0.116,237.921,0.044,210.862,0.035,236.07,0.006,161.171
Pte Des Galets (Reunion Is.),55.3061798,-20.9237468,UHSLC_Fast,0.174,281.899,0.092,295.905,0.045,281.754,0.026,290.108,0.053,82.551,0.033,48.216,0.017,77.945,0.007,12.007
Sadeng,110.783333,-8.5,UHSLC_Fast,0.537,30.534,0.281,88.452,0.102,2.166,0.078,86.234,0.209,164.045,0.128,155.835,0.06,162.632,0.027,143.606
Tanjung Lesung,105.6612708,-6.4793968,UHSLC_Fast,0.329,356.931,0.147,55.077,0.068,331.122,0.039,54.918,0.137,150.9,0.087,145.584,0.042,152.955,0.018,127.387
Telukdalam,97.8260176,0.5626953,UHSLC_Fast,0.237,323.395,0.114,359.23,0.049,309.382,0.032,356.221,0.099,175.893,0.06,157.271,0.031,173.988,0.013,133.472
Vishakhapatnam (Vishkhapatnam),83.2975309,17.6872371,UHSLC_Fast,0.475,79.264,0.207,108.705,0.104,73.533,0.053,108.469,0.113,253.286,0.04,245.668,0.037,254.497,0.002,1.161
Waikelo,119.2187628,-9.3888858,UHSLC_Fast,0.826,65.481,0.431,117.732,0.15,40.268,0.113,113.448,0.246,170.961,0.154,161.981,0.071,169.732,0.035,149.605
10 Lingshuijiao,110.0509072,18.3810901,Fang1999,0.18,78,0.08,100,NaN,NaN,NaN,NaN,0.3,197,0.23,145,NaN,NaN,NaN,NaN
12 Yangpu,109.1918824,19.7230101,Fang1999,0.24,278,0.09,324,NaN,NaN,NaN,NaN,0.73,325,0.81,266,NaN,NaN,NaN,NaN
14 Tsieng mum,107.6167,21.13333,Fang1999,0.18,307,0.06,350,NaN,NaN,NaN,NaN,0.73,336,0.82,278,NaN,NaN,NaN,NaN
15 Hongai,107.066667,20.95,Fang1999,0.06,272,0.03,267,NaN,NaN,NaN,NaN,0.85,343,0.88,296,NaN,NaN,NaN,NaN
16 Hon Nieu,105.7692449,18.7973999,Fang1999,0.3,159,0.09,233,NaN,NaN,NaN,NaN,0.49,343,0.58,305,NaN,NaN,NaN,NaN
18 Thuan An,107.633,16.567,Fang1999,0.18,119,0.04,178,NaN,NaN,NaN,NaN,0.03,150,0.02,267,NaN,NaN,NaN,NaN
19 Da Nang,108.198707,16.097402,Fang1999,0.17,98,0.06,130,NaN,NaN,NaN,NaN,0.2,184,0.13,146,NaN,NaN,NaN,NaN
2 Shaoanwan,117.1318017,23.56335933,Fang1999,0.76,142,0.18,200,NaN,NaN,NaN,NaN,0.34,172,0.3,136,NaN,NaN,NaN,NaN
22 Cam Ranh,109.2,11.883333,Fang1999,0.18,97,0.09,135,NaN,NaN,NaN,NaN,0.34,187,0.3,153,NaN,NaN,NaN,NaN
27 Hatien,104.445124,10.341728,Fang1999,0.1,247,0.02,113,NaN,NaN,NaN,NaN,0.26,321,0.13,300,NaN,NaN,NaN,NaN
32 Bangkok bar,100.58333,13.46667,Fang1999,0.55,298,0.27,2,NaN,NaN,NaN,NaN,0.67,62,0.46,19,NaN,NaN,NaN,NaN
34 Koh Prap,99.4345252,9.2647331,Fang1999,0.18,126,0.12,206,NaN,NaN,NaN,NaN,0.46,77,0.3,32,NaN,NaN,NaN,NaN
36 Tumpat,102.1666121,6.2018993,Fang1999,0.18,29,0.08,53,NaN,NaN,NaN,NaN,0.28,231,0.17,204,NaN,NaN,NaN,NaN
37 Trengganu,103.1368842,5.349765,Fang1999,0.27,11,0.12,49,NaN,NaN,NaN,NaN,0.52,243,0.3,203,NaN,NaN,NaN,NaN
38 Kuantan,103.4435559,3.9667812,Fang1999,0.55,38,0.18,82,NaN,NaN,NaN,NaN,0.52,258,0.34,222,NaN,NaN,NaN,NaN
41 Pulau Laut,108.00734,4.735791,Fang1999,0.09,213,0.04,206,NaN,NaN,NaN,NaN,0.36,228,0.18,171,NaN,NaN,NaN,NaN
42 Natuna,108.033333,3.8,Fang1999,0.21,245,0.06,278,NaN,NaN,NaN,NaN,0.4,235,0.27,213,NaN,NaN,NaN,NaN
43 Subi Kechil,108.85,3.06,Fang1999,0.49,237,0.15,274,NaN,NaN,NaN,NaN,0.37,230,0.24,191,NaN,NaN,NaN,NaN
44 Tanjong Datu,109.6500858,2.0829041,Fang1999,0.91,245,0.18,261,NaN,NaN,NaN,NaN,0.37,215,0.15,144,NaN,NaN,NaN,NaN
46 Triso Darat,110.9879831,1.5204279,Fang1999,1.71,271,0.52,333,NaN,NaN,NaN,NaN,0.4,231,0.34,201,NaN,NaN,NaN,NaN
47 Kuala Paloh,111.233333,2.45,Fang1999,1.1,242,0.3,296,NaN,NaN,NaN,NaN,0.46,218,0.37,176,NaN,NaN,NaN,NaN
48 Batang Mukah,112.096294,2.925108333,Fang1999,0.37,221,0.09,227,NaN,NaN,NaN,NaN,0.4,206,0.34,156,NaN,NaN,NaN,NaN
5 Dayawan,114.7304148,22.734085,Fang1999,0.37,20,0.15,39,NaN,NaN,NaN,NaN,0.34,175,0.27,137,NaN,NaN,NaN,NaN
53 Ulugan bay,118.7840493,10.07075167,Fang1999,0.21,72,0.09,105,NaN,NaN,NaN,NaN,0.34,197,0.27,155,NaN,NaN,NaN,NaN
57 Santa Cruz,119.9,15.766667,Fang1999,0.12,31,0.02,84,NaN,NaN,NaN,NaN,0.26,193,0.22,147,NaN,NaN,NaN,NaN
58 San Fernando,120.305732,16.62494867,Fang1999,0.08,32,0.02,43,NaN,NaN,NaN,NaN,0.24,192,0.2,155,NaN,NaN,NaN,NaN
59 Yongshujiao,112.9011858,9.5859704,Fang1999,0.18,87,0.08,116,NaN,NaN,NaN,NaN,0.35,191,0.29,151,NaN,NaN,NaN,NaN
60 Makung,119.566667,23.55,Fang1999,0.87,94,0.23,135,NaN,NaN,NaN,NaN,0.25,158,0.21,125,NaN,NaN,NaN,NaN
62 Putai,120.1457153,23.393541,Fang1999,0.6,80,0.14,125,NaN,NaN,NaN,NaN,0.2,158,0.19,125,NaN,NaN,NaN,NaN
A1_Shelf,106.835,-1.6666667,Wei2016,0.038,341.3,0.026,82.3,0.004,306.6,NaN,NaN,0.591,30,0.424,329.1,NaN,NaN,0.078,306.1
A2_Shelf,107.9866667,-1.0916667,Wei2016,0.044,322.9,0.027,62.2,0.008,284.9,NaN,NaN,0.508,27,0.374,326.8,NaN,NaN,0.072,305.4
B1_Shelf,107.16,-2.78,Wei2016,0.043,236.4,0.053,160,0.02,206.6,NaN,NaN,0.596,33.3,0.396,344.7,NaN,NaN,0.074,324.3
B2_Shelf,108.25,-2.2833333,Wei2016,0.019,117.5,0.056,123.8,0.006,192.6,NaN,NaN,0.544,45.4,0.365,354.7,NaN,NaN,0.073,335
B3_Shelf,108.55,-1.915,Wei2016,0.022,68.5,0.087,96.5,0.005,8.7,NaN,NaN,0.572,36.2,0.352,343.9,NaN,NaN,0.117,339.4
I1 Beihuangcheng,120.92,38.4,Fang2004,0.591,71.327,0.186,118.1,NaN,NaN,NaN,NaN,0.072,259.871,0.045,258.856,NaN,NaN,NaN,NaN
I2 Haiyangdao,123.1524247,39.070454,Fang2004,1.263,17.627,0.413,60.5,NaN,NaN,NaN,NaN,0.332,215.571,0.229,183.156,NaN,NaN,NaN,NaN
I3 Qianliyan,121.38,36.27,Fang2004,0.983,224.227,0.347,259.5,NaN,NaN,NaN,NaN,0.223,221.671,0.183,174.556,NaN,NaN,NaN,NaN
I4 Shengshan,122.8,30.75,Fang2004,1.127,47.127,0.524,84.4,NaN,NaN,NaN,NaN,0.253,75.371,0.165,39.556,NaN,NaN,NaN,NaN
I5 Pingtan,119.85,25.24,Fang2004,2.014,80.227,0.608,114.4,NaN,NaN,NaN,NaN,0.308,130.371,0.25,100.756,NaN,NaN,NaN,NaN
I6 Takarashima,129.2048923,29.1588449,Fang2004,0.56,308.127,0.23,329,NaN,NaN,NaN,NaN,0.22,81.671,0.15,60.456,NaN,NaN,NaN,NaN
Pelagic_TP1,120.46667,-13.51667,Robertson2008,0.897,56,0.5,130,NaN,NaN,NaN,NaN,0.241,169,0.141,161,NaN,NaN,NaN,NaN
Pelagic_TP2,119.05,-2.15,Robertson2008,0.464,277,0.324,326,NaN,NaN,NaN,NaN,0.221,155,0.162,116,NaN,NaN,NaN,NaN
Pelagic_TP3,120.46667,2.15,Robertson2008,0.589,290,0.344,334,NaN,NaN,NaN,NaN,0.179,133,0.134,116,NaN,NaN,NaN,NaN
Pelagic_TP4,123.28333,2.03333,Robertson2008,0.572,291,0.328,334,NaN,NaN,NaN,NaN,0.173,127,0.128,112,NaN,NaN,NaN,NaN
Pelagic_TP5,127.55,-2.05,Robertson2008,0.256,160,0.11,249,NaN,NaN,NaN,NaN,0.218,170,0.142,155,NaN,NaN,NaN,NaN
Pelagic_TP6,121.88333,5.93333,Robertson2008,0.596,290,0.331,334,NaN,NaN,NaN,NaN,0.176,135,0.135,117,NaN,NaN,NaN,NaN
Pelagic_TP7,131.81667,-5.9,Robertson2008,0.585,139,0.185,199,NaN,NaN,NaN,NaN,0.277,187,0.186,174,NaN,NaN,NaN,NaN
Pelagic_TP8,128.96667,2.01667,Robertson2008,0.493,288,0.214,318,NaN,NaN,NaN,NaN,0.192,87,0.129,175,NaN,NaN,NaN,NaN
Shelf_TP1,114.8,-5.96667,Robertson2008,0.134,140,0.053,78,NaN,NaN,NaN,NaN,0.449,201,0.225,165,NaN,NaN,NaN,NaN
Shelf_TP2,119.05,-9.75,Robertson2008,0.831,54,0.457,107,NaN,NaN,NaN,NaN,0.245,169,0.143,161,NaN,NaN,NaN,NaN
Shelf_TP3,126.13333,-13.5,Robertson2008,0.847,62,0.566,124,NaN,NaN,NaN,NaN,0.401,193,0.232,182,NaN,NaN,NaN,NaN
Shelf_TP4,127.55,-9.75,Robertson2008,0.622,120,0.241,167,NaN,NaN,NaN,NaN,0.299,184,0.192,172,NaN,NaN,NaN,NaN
Shelf_TP5,133.21667,-9.76667,Robertson2008,0.435,189,0.142,252,NaN,NaN,NaN,NaN,0.266,230,0.264,217,NaN,NaN,NaN,NaN
Dhulasar,90.27,21.85,Krien2016,0.73,158,0.35,193,NaN,NaN,NaN,NaN,0.13,286,0.04,278,NaN,NaN,NaN,NaN
Sagar Roads,88.045,21.647,Krien2016,1.4,116,0.66,150,NaN,NaN,NaN,NaN,0.15,262,0.05,250,NaN,NaN,NaN,NaN
